{"type":"FeatureCollection", "features": [
{"type":"Feature","geometry":{"type":"Point","coordinates":[-73.95681457599994,40.70829388300007]},"properties":{"OBJECTID":4,"Job_Type":"NB","Job_Number":320612538,"BIN_Number":3063587,"Enlargemen":"No","Borough_Na":"Brooklyn","Total_Cons":9000,"Enlargem_1":0,"Permit_Iss":"2017-09-15T00:00:00.000Z","Permit_Exp":"2018-09-09T00:00:00.000Z","Address":"319 BROADWAY","Proposed_S":6,"Existing_S":0,"BBL":3024610020}},
{"type":"Feature","geometry":{"type":"Point","coordinates":[-73.95681457599994,40.70829388300007]},"properties":{"OBJECTID":5,"Job_Type":"NB","Job_Number":320612538,"BIN_Number":3063587,"Enlargemen":"No","Borough_Na":"Brooklyn","Total_Cons":0,"Enlargem_1":0,"Permit_Iss":"2017-09-06T00:00:00.000Z","Permit_Exp":"2018-09-06T00:00:00.000Z","Address":"319 BROADWAY","Proposed_S":0,"Existing_S":0,"BBL":3024610020}},
{"type":"Feature","geometry":{"type":"Point","coordinates":[-73.95681457599994,40.70829388300007]},"properties":{"OBJECTID":6,"Job_Type":"NB","Job_Number":320612538,"BIN_Number":3063587,"Enlargemen":"No","Borough_Na":"Brooklyn","Total_Cons":9000,"Enlargem_1":0,"Permit_Iss":"2017-09-15T00:00:00.000Z","Permit_Exp":"2018-09-15T00:00:00.000Z","Address":"319 BROADWAY","Proposed_S":6,"Existing_S":0,"BBL":3024610020}},
{"type":"Feature","geometry":{"type":"Point","coordinates":[-73.95969572199994,40.70882107700004]},"properties":{"OBJECTID":20,"Job_Type":"NB","Job_Number":320357467,"BIN_Number":3059649,"Enlargemen":"No","Borough_Na":"Brooklyn","Total_Cons":39279,"Enlargem_1":0,"Permit_Iss":"2017-06-23T00:00:00.000Z","Permit_Exp":"2018-06-24T00:00:00.000Z","Address":"252 BROADWAY","Proposed_S":7,"Existing_S":0,"BBL":3021400017}},
{"type":"Feature","geometry":{"type":"Point","coordinates":[-73.95969572199994,40.70882107700004]},"properties":{"OBJECTID":21,"Job_Type":"NB","Job_Number":320357467,"BIN_Number":3059649,"Enlargemen":"No","Borough_Na":"Brooklyn","Total_Cons":39279,"Enlargem_1":0,"Permit_Iss":"2017-05-24T00:00:00.000Z","Permit_Exp":"2018-05-24T00:00:00.000Z","Address":"252 BROADWAY","Proposed_S":7,"Existing_S":0,"BBL":3021400017}},
{"type":"Feature","geometry":{"type":"Point","coordinates":[-73.95969572199994,40.70882107700004]},"properties":{"OBJECTID":22,"Job_Type":"NB","Job_Number":320357467,"BIN_Number":3059649,"Enlargemen":"No","Borough_Na":"Brooklyn","Total_Cons":39279,"Enlargem_1":0,"Permit_Iss":"2017-06-23T00:00:00.000Z","Permit_Exp":"2018-06-23T00:00:00.000Z","Address":"252 BROADWAY","Proposed_S":7,"Existing_S":0,"BBL":3021400017}},
{"type":"Feature","geometry":{"type":"Point","coordinates":[-73.95120507499996,40.70952940800004]},"properties":{"OBJECTID":51,"Job_Type":"NB","Job_Number":320593210,"BIN_Number":3063055,"Enlargemen":"No","Borough_Na":"Brooklyn","Total_Cons":35378,"Enlargem_1":0,"Permit_Iss":"2018-02-28T00:00:00.000Z","Permit_Exp":"2019-02-23T00:00:00.000Z","Address":"305 UNION AVENUE","Proposed_S":7,"Existing_S":0,"BBL":3024130019}},
{"type":"Feature","geometry":{"type":"Point","coordinates":[-73.95120507499996,40.70952940800004]},"properties":{"OBJECTID":52,"Job_Type":"NB","Job_Number":320593210,"BIN_Number":3063055,"Enlargemen":"No","Borough_Na":"Brooklyn","Total_Cons":0,"Enlargem_1":0,"Permit_Iss":"2018-03-26T00:00:00.000Z","Permit_Exp":"2019-03-26T00:00:00.000Z","Address":"305 UNION AVENUE","Proposed_S":0,"Existing_S":0,"BBL":3024130019}},
{"type":"Feature","geometry":{"type":"Point","coordinates":[-73.95120507499996,40.70952940800004]},"properties":{"OBJECTID":53,"Job_Type":"NB","Job_Number":320593210,"BIN_Number":3063055,"Enlargemen":"No","Borough_Na":"Brooklyn","Total_Cons":35378,"Enlargem_1":0,"Permit_Iss":"2018-03-07T00:00:00.000Z","Permit_Exp":"2019-03-07T00:00:00.000Z","Address":"305 UNION AVENUE","Proposed_S":7,"Existing_S":0,"BBL":3024130019}},
{"type":"Feature","geometry":{"type":"Point","coordinates":[-73.93971882599999,40.70963030200005]},"properties":{"OBJECTID":56,"Job_Type":"NB","Job_Number":321367196,"BIN_Number":3070879,"Enlargemen":"No","Borough_Na":"Brooklyn","Total_Cons":23496,"Enlargem_1":0,"Permit_Iss":"2017-11-24T00:00:00.000Z","Permit_Exp":"2018-11-24T00:00:00.000Z","Address":"236 STAGG STREET","Proposed_S":7,"Existing_S":0,"BBL":3030370010}},
{"type":"Feature","geometry":{"type":"Point","coordinates":[-73.93971882599999,40.70963030200005]},"properties":{"OBJECTID":57,"Job_Type":"NB","Job_Number":321367196,"BIN_Number":3070879,"Enlargemen":"No","Borough_Na":"Brooklyn","Total_Cons":0,"Enlargem_1":0,"Permit_Iss":"2017-06-19T00:00:00.000Z","Permit_Exp":"2018-06-19T00:00:00.000Z","Address":"236 STAGG STREET","Proposed_S":0,"Existing_S":0,"BBL":3030370010}},
{"type":"Feature","geometry":{"type":"Point","coordinates":[-73.93971882599999,40.70963030200005]},"properties":{"OBJECTID":58,"Job_Type":"NB","Job_Number":321367196,"BIN_Number":3070879,"Enlargemen":"No","Borough_Na":"Brooklyn","Total_Cons":23496,"Enlargem_1":0,"Permit_Iss":"2017-11-24T00:00:00.000Z","Permit_Exp":"2018-11-24T00:00:00.000Z","Address":"236 STAGG STREET","Proposed_S":7,"Existing_S":0,"BBL":3030370010}},
{"type":"Feature","geometry":{"type":"Point","coordinates":[-73.95761215799996,40.70955446800008]},"properties":{"OBJECTID":59,"Job_Type":"NB","Job_Number":321192437,"BIN_Number":3323539,"Enlargemen":"No","Borough_Na":"Brooklyn","Total_Cons":327567,"Enlargem_1":0,"Permit_Iss":"2018-03-08T00:00:00.000Z","Permit_Exp":"2019-03-08T00:00:00.000Z","Address":"277 SOUTH 5TH STREET","Proposed_S":23,"Existing_S":0,"BBL":3024470135}},
{"type":"Feature","geometry":{"type":"Point","coordinates":[-73.95761215799996,40.70955446800008]},"properties":{"OBJECTID":60,"Job_Type":"NB","Job_Number":321192437,"BIN_Number":3323539,"Enlargemen":"No","Borough_Na":"Brooklyn","Total_Cons":327567,"Enlargem_1":0,"Permit_Iss":"2017-08-14T00:00:00.000Z","Permit_Exp":"2018-08-14T00:00:00.000Z","Address":"277 SOUTH 5TH STREET","Proposed_S":23,"Existing_S":0,"BBL":3024470135}},
{"type":"Feature","geometry":{"type":"Point","coordinates":[-73.95761215799996,40.70955446800008]},"properties":{"OBJECTID":61,"Job_Type":"NB","Job_Number":321192437,"BIN_Number":3323539,"Enlargemen":"No","Borough_Na":"Brooklyn","Total_Cons":327567,"Enlargem_1":0,"Permit_Iss":"2017-11-16T00:00:00.000Z","Permit_Exp":"2018-11-16T00:00:00.000Z","Address":"277 SOUTH 5TH STREET","Proposed_S":23,"Existing_S":0,"BBL":3024470135}},
{"type":"Feature","geometry":{"type":"Point","coordinates":[-73.94920279899998,40.70988822800007]},"properties":{"OBJECTID":69,"Job_Type":"NB","Job_Number":320262746,"BIN_Number":3251778,"Enlargemen":"","Borough_Na":"Brooklyn","Total_Cons":0,"Enlargem_1":0,"Permit_Iss":"2017-04-12T00:00:00.000Z","Permit_Exp":"2018-04-12T00:00:00.000Z","Address":"37 TEN EYCK STREET","Proposed_S":0,"Existing_S":0,"BBL":3027910035}},
{"type":"Feature","geometry":{"type":"Point","coordinates":[-73.96631428499995,40.710012532000064]},"properties":{"OBJECTID":74,"Job_Type":"NB","Job_Number":321011418,"BIN_Number":3418167,"Enlargemen":"No","Borough_Na":"Brooklyn","Total_Cons":32005,"Enlargem_1":0,"Permit_Iss":"2017-11-16T00:00:00.000Z","Permit_Exp":"2018-09-28T00:00:00.000Z","Address":"75 SOUTH 8 STREET","Proposed_S":4,"Existing_S":0,"BBL":3021300027}},
{"type":"Feature","geometry":{"type":"Point","coordinates":[-73.95358500899994,40.71029081300003]},"properties":{"OBJECTID":84,"Job_Type":"NB","Job_Number":321423544,"BIN_Number":3256386,"Enlargemen":"No","Borough_Na":"Brooklyn","Total_Cons":5367,"Enlargem_1":0,"Permit_Iss":"2018-01-29T00:00:00.000Z","Permit_Exp":"2018-04-24T00:00:00.000Z","Address":"382 KEAP ST","Proposed_S":4,"Existing_S":0,"BBL":3024120001}},
{"type":"Feature","geometry":{"type":"Point","coordinates":[-73.95358500899994,40.71029081300003]},"properties":{"OBJECTID":85,"Job_Type":"NB","Job_Number":321423544,"BIN_Number":3256386,"Enlargemen":"No","Borough_Na":"Brooklyn","Total_Cons":5367,"Enlargem_1":0,"Permit_Iss":"2017-11-02T00:00:00.000Z","Permit_Exp":"2018-11-02T00:00:00.000Z","Address":"382 KEAP ST","Proposed_S":4,"Existing_S":0,"BBL":3024120001}},
{"type":"Feature","geometry":{"type":"Point","coordinates":[-73.94795807199995,40.71029389700004]},"properties":{"OBJECTID":86,"Job_Type":"NB","Job_Number":321192785,"BIN_Number":3425752,"Enlargemen":"No","Borough_Na":"Brooklyn","Total_Cons":6737,"Enlargem_1":0,"Permit_Iss":"2018-03-16T00:00:00.000Z","Permit_Exp":"2018-08-15T00:00:00.000Z","Address":"66 MAUJER STREET","Proposed_S":4,"Existing_S":0,"BBL":3027920012}},
{"type":"Feature","geometry":{"type":"Point","coordinates":[-73.94795807199995,40.71029389700004]},"properties":{"OBJECTID":87,"Job_Type":"NB","Job_Number":321192785,"BIN_Number":3425752,"Enlargemen":"No","Borough_Na":"Brooklyn","Total_Cons":6737,"Enlargem_1":0,"Permit_Iss":"2017-11-17T00:00:00.000Z","Permit_Exp":"2018-08-15T00:00:00.000Z","Address":"66 MAUJER STREET","Proposed_S":4,"Existing_S":0,"BBL":3027920012}},
{"type":"Feature","geometry":{"type":"Point","coordinates":[-73.94795807199995,40.71029389700004]},"properties":{"OBJECTID":88,"Job_Type":"NB","Job_Number":321192785,"BIN_Number":3425752,"Enlargemen":"No","Borough_Na":"Brooklyn","Total_Cons":6737,"Enlargem_1":0,"Permit_Iss":"2017-11-17T00:00:00.000Z","Permit_Exp":"2018-11-17T00:00:00.000Z","Address":"66 MAUJER STREET","Proposed_S":4,"Existing_S":0,"BBL":3027920012}},
{"type":"Feature","geometry":{"type":"Point","coordinates":[-73.94795807199995,40.71029389700004]},"properties":{"OBJECTID":89,"Job_Type":"NB","Job_Number":321192785,"BIN_Number":3425752,"Enlargemen":"No","Borough_Na":"Brooklyn","Total_Cons":6737,"Enlargem_1":0,"Permit_Iss":"2018-03-08T00:00:00.000Z","Permit_Exp":"2019-03-08T00:00:00.000Z","Address":"66 MAUJER STREET","Proposed_S":4,"Existing_S":0,"BBL":3027920012}},
{"type":"Feature","geometry":{"type":"Point","coordinates":[-73.95200134199996,40.71055366100006]},"properties":{"OBJECTID":108,"Job_Type":"NB","Job_Number":321040565,"BIN_Number":3335779,"Enlargemen":"No","Borough_Na":"Brooklyn","Total_Cons":13993,"Enlargem_1":0,"Permit_Iss":"2018-03-13T00:00:00.000Z","Permit_Exp":"2018-07-05T00:00:00.000Z","Address":"391 HOOPER ST","Proposed_S":6,"Existing_S":0,"BBL":3023990019}},
{"type":"Feature","geometry":{"type":"Point","coordinates":[-73.95200134199996,40.71055366100006]},"properties":{"OBJECTID":109,"Job_Type":"NB","Job_Number":321040565,"BIN_Number":3335779,"Enlargemen":"No","Borough_Na":"Brooklyn","Total_Cons":13993,"Enlargem_1":0,"Permit_Iss":"2017-08-03T00:00:00.000Z","Permit_Exp":"2018-08-03T00:00:00.000Z","Address":"391 HOOPER ST","Proposed_S":6,"Existing_S":0,"BBL":3023990019}},
{"type":"Feature","geometry":{"type":"Point","coordinates":[-73.95200134199996,40.71055366100006]},"properties":{"OBJECTID":110,"Job_Type":"NB","Job_Number":321040565,"BIN_Number":3335779,"Enlargemen":"No","Borough_Na":"Brooklyn","Total_Cons":13993,"Enlargem_1":0,"Permit_Iss":"2017-08-04T00:00:00.000Z","Permit_Exp":"2018-07-05T00:00:00.000Z","Address":"391 HOOPER ST","Proposed_S":6,"Existing_S":0,"BBL":3023990019}},
{"type":"Feature","geometry":{"type":"Point","coordinates":[-73.94954494299998,40.71057456900007]},"properties":{"OBJECTID":111,"Job_Type":"NB","Job_Number":321004783,"BIN_Number":3424474,"Enlargemen":"No","Borough_Na":"Brooklyn","Total_Cons":6807,"Enlargem_1":0,"Permit_Iss":"2017-10-05T00:00:00.000Z","Permit_Exp":"2018-10-05T00:00:00.000Z","Address":"43 MAUJER ST","Proposed_S":4,"Existing_S":0,"BBL":3027850039}},
{"type":"Feature","geometry":{"type":"Point","coordinates":[-73.94954494299998,40.71057456900007]},"properties":{"OBJECTID":112,"Job_Type":"NB","Job_Number":321004792,"BIN_Number":3424475,"Enlargemen":"No","Borough_Na":"Brooklyn","Total_Cons":6807,"Enlargem_1":0,"Permit_Iss":"2017-10-05T00:00:00.000Z","Permit_Exp":"2018-10-05T00:00:00.000Z","Address":"45 MAUJER ST","Proposed_S":4,"Existing_S":0,"BBL":3027850039}},
{"type":"Feature","geometry":{"type":"Point","coordinates":[-73.95674101799995,40.71048143100006]},"properties":{"OBJECTID":119,"Job_Type":"NB","Job_Number":320917139,"BIN_Number":3413966,"Enlargemen":"No","Borough_Na":"Brooklyn","Total_Cons":2819,"Enlargem_1":0,"Permit_Iss":"2017-11-15T00:00:00.000Z","Permit_Exp":"2018-09-08T00:00:00.000Z","Address":"47 BORINQUEN PLACE","Proposed_S":4,"Existing_S":0,"BBL":3024210027}},
{"type":"Feature","geometry":{"type":"Point","coordinates":[-73.95667247599994,40.71049512900004]},"properties":{"OBJECTID":120,"Job_Type":"NB","Job_Number":320917148,"BIN_Number":3413965,"Enlargemen":"No","Borough_Na":"Brooklyn","Total_Cons":3318,"Enlargem_1":0,"Permit_Iss":"2017-11-14T00:00:00.000Z","Permit_Exp":"2018-09-08T00:00:00.000Z","Address":"51 BORINQUEN PLACE","Proposed_S":4,"Existing_S":0,"BBL":3024210026}},
{"type":"Feature","geometry":{"type":"Point","coordinates":[-73.95663640199996,40.71050060500005]},"properties":{"OBJECTID":121,"Job_Type":"NB","Job_Number":320917157,"BIN_Number":3413967,"Enlargemen":"No","Borough_Na":"Brooklyn","Total_Cons":3634,"Enlargem_1":0,"Permit_Iss":"2017-11-14T00:00:00.000Z","Permit_Exp":"2018-09-08T00:00:00.000Z","Address":"53 BORINQUEN PLACE","Proposed_S":3,"Existing_S":0,"BBL":3024210025}},
{"type":"Feature","geometry":{"type":"Point","coordinates":[-73.95676611099998,40.71072298000007]},"properties":{"OBJECTID":122,"Job_Type":"NB","Job_Number":320917166,"BIN_Number":3413964,"Enlargemen":"No","Borough_Na":"Brooklyn","Total_Cons":3634,"Enlargem_1":0,"Permit_Iss":"2017-11-14T00:00:00.000Z","Permit_Exp":"2018-09-08T00:00:00.000Z","Address":"55 BORINQUEN PLACE","Proposed_S":3,"Existing_S":0,"BBL":3024210024}},
{"type":"Feature","geometry":{"type":"Point","coordinates":[-73.95674101799995,40.71048143100006]},"properties":{"OBJECTID":123,"Job_Type":"NB","Job_Number":320917139,"BIN_Number":3413966,"Enlargemen":"No","Borough_Na":"Brooklyn","Total_Cons":2819,"Enlargem_1":0,"Permit_Iss":"2017-11-15T00:00:00.000Z","Permit_Exp":"2018-09-08T00:00:00.000Z","Address":"47 BORINQUEN PLACE","Proposed_S":4,"Existing_S":0,"BBL":3024210027}},
{"type":"Feature","geometry":{"type":"Point","coordinates":[-73.95674101799995,40.71048143100006]},"properties":{"OBJECTID":124,"Job_Type":"NB","Job_Number":320917139,"BIN_Number":3413966,"Enlargemen":"No","Borough_Na":"Brooklyn","Total_Cons":2819,"Enlargem_1":0,"Permit_Iss":"2017-11-15T00:00:00.000Z","Permit_Exp":"2018-11-15T00:00:00.000Z","Address":"47 BORINQUEN PLACE","Proposed_S":4,"Existing_S":0,"BBL":3024210027}},
{"type":"Feature","geometry":{"type":"Point","coordinates":[-73.95667247599994,40.71049512900004]},"properties":{"OBJECTID":125,"Job_Type":"NB","Job_Number":320917148,"BIN_Number":3413965,"Enlargemen":"No","Borough_Na":"Brooklyn","Total_Cons":3318,"Enlargem_1":0,"Permit_Iss":"2017-11-14T00:00:00.000Z","Permit_Exp":"2018-09-08T00:00:00.000Z","Address":"51 BORINQUEN PLACE","Proposed_S":4,"Existing_S":0,"BBL":3024210026}},
{"type":"Feature","geometry":{"type":"Point","coordinates":[-73.95667247599994,40.71049512900004]},"properties":{"OBJECTID":126,"Job_Type":"NB","Job_Number":320917148,"BIN_Number":3413965,"Enlargemen":"No","Borough_Na":"Brooklyn","Total_Cons":3318,"Enlargem_1":0,"Permit_Iss":"2017-11-14T00:00:00.000Z","Permit_Exp":"2018-11-14T00:00:00.000Z","Address":"51 BORINQUEN PLACE","Proposed_S":4,"Existing_S":0,"BBL":3024210026}},
{"type":"Feature","geometry":{"type":"Point","coordinates":[-73.95663640199996,40.71050060500005]},"properties":{"OBJECTID":127,"Job_Type":"NB","Job_Number":320917157,"BIN_Number":3413967,"Enlargemen":"No","Borough_Na":"Brooklyn","Total_Cons":3634,"Enlargem_1":0,"Permit_Iss":"2017-11-14T00:00:00.000Z","Permit_Exp":"2018-09-08T00:00:00.000Z","Address":"53 BORINQUEN PLACE","Proposed_S":3,"Existing_S":0,"BBL":3024210025}},
{"type":"Feature","geometry":{"type":"Point","coordinates":[-73.95663640199996,40.71050060500005]},"properties":{"OBJECTID":128,"Job_Type":"NB","Job_Number":320917157,"BIN_Number":3413967,"Enlargemen":"No","Borough_Na":"Brooklyn","Total_Cons":3634,"Enlargem_1":0,"Permit_Iss":"2017-11-14T00:00:00.000Z","Permit_Exp":"2018-11-14T00:00:00.000Z","Address":"53 BORINQUEN PLACE","Proposed_S":3,"Existing_S":0,"BBL":3024210025}},
{"type":"Feature","geometry":{"type":"Point","coordinates":[-73.95676611099998,40.71072298000007]},"properties":{"OBJECTID":129,"Job_Type":"NB","Job_Number":320917166,"BIN_Number":3413964,"Enlargemen":"No","Borough_Na":"Brooklyn","Total_Cons":3634,"Enlargem_1":0,"Permit_Iss":"2017-11-14T00:00:00.000Z","Permit_Exp":"2018-09-08T00:00:00.000Z","Address":"55 BORINQUEN PLACE","Proposed_S":3,"Existing_S":0,"BBL":3024210024}},
{"type":"Feature","geometry":{"type":"Point","coordinates":[-73.95676611099998,40.71072298000007]},"properties":{"OBJECTID":130,"Job_Type":"NB","Job_Number":320917166,"BIN_Number":3413964,"Enlargemen":"No","Borough_Na":"Brooklyn","Total_Cons":3634,"Enlargem_1":0,"Permit_Iss":"2017-11-14T00:00:00.000Z","Permit_Exp":"2018-11-14T00:00:00.000Z","Address":"55 BORINQUEN PLACE","Proposed_S":3,"Existing_S":0,"BBL":3024210024}},
{"type":"Feature","geometry":{"type":"Point","coordinates":[-73.94508276099998,40.71092934600006]},"properties":{"OBJECTID":143,"Job_Type":"NB","Job_Number":320576890,"BIN_Number":3409666,"Enlargemen":"No","Borough_Na":"Brooklyn","Total_Cons":3992,"Enlargem_1":0,"Permit_Iss":"2017-10-12T00:00:00.000Z","Permit_Exp":"2018-10-12T00:00:00.000Z","Address":"141 MAUJER STREET","Proposed_S":2,"Existing_S":0,"BBL":3027880041}},
{"type":"Feature","geometry":{"type":"Point","coordinates":[-73.95477273699998,40.71076832000006]},"properties":{"OBJECTID":144,"Job_Type":"NB","Job_Number":320613494,"BIN_Number":3063034,"Enlargemen":"No","Borough_Na":"Brooklyn","Total_Cons":129573,"Enlargem_1":0,"Permit_Iss":"2017-11-13T00:00:00.000Z","Permit_Exp":"2018-09-29T00:00:00.000Z","Address":"125 BORINQUEN PLACE","Proposed_S":7,"Existing_S":0,"BBL":3024110001}},
{"type":"Feature","geometry":{"type":"Point","coordinates":[-73.96140660999998,40.71100531600007]},"properties":{"OBJECTID":148,"Job_Type":"NB","Job_Number":321282072,"BIN_Number":3063457,"Enlargemen":"No","Borough_Na":"Brooklyn","Total_Cons":7579,"Enlargem_1":0,"Permit_Iss":"2017-12-06T00:00:00.000Z","Permit_Exp":"2018-11-08T00:00:00.000Z","Address":"801 DRIGGS AVE","Proposed_S":4,"Existing_S":0,"BBL":3024460072}},
{"type":"Feature","geometry":{"type":"Point","coordinates":[-73.96140660999998,40.71100531600007]},"properties":{"OBJECTID":149,"Job_Type":"NB","Job_Number":321282072,"BIN_Number":3063457,"Enlargemen":"No","Borough_Na":"Brooklyn","Total_Cons":7579,"Enlargem_1":0,"Permit_Iss":"2017-06-07T00:00:00.000Z","Permit_Exp":"2018-06-07T00:00:00.000Z","Address":"801 DRIGGS AVE","Proposed_S":4,"Existing_S":0,"BBL":3024460072}},
{"type":"Feature","geometry":{"type":"Point","coordinates":[-73.95251321099994,40.71101499400004]},"properties":{"OBJECTID":150,"Job_Type":"NB","Job_Number":320516321,"BIN_Number":3417817,"Enlargemen":"No","Borough_Na":"Brooklyn","Total_Cons":15427,"Enlargem_1":0,"Permit_Iss":"2018-03-02T00:00:00.000Z","Permit_Exp":"2018-06-30T00:00:00.000Z","Address":"460 GRAND STREET","Proposed_S":5,"Existing_S":0,"BBL":3023990008}},
{"type":"Feature","geometry":{"type":"Point","coordinates":[-73.95251321099994,40.71101499400004]},"properties":{"OBJECTID":151,"Job_Type":"NB","Job_Number":320516321,"BIN_Number":3417817,"Enlargemen":"No","Borough_Na":"Brooklyn","Total_Cons":15427,"Enlargem_1":0,"Permit_Iss":"2017-04-19T00:00:00.000Z","Permit_Exp":"2018-04-19T00:00:00.000Z","Address":"460 GRAND STREET","Proposed_S":5,"Existing_S":0,"BBL":3023990008}},
{"type":"Feature","geometry":{"type":"Point","coordinates":[-73.95251321099994,40.71101499400004]},"properties":{"OBJECTID":152,"Job_Type":"NB","Job_Number":320516321,"BIN_Number":3417817,"Enlargemen":"No","Borough_Na":"Brooklyn","Total_Cons":15427,"Enlargem_1":0,"Permit_Iss":"2017-10-24T00:00:00.000Z","Permit_Exp":"2018-10-24T00:00:00.000Z","Address":"460 GRAND STREET","Proposed_S":5,"Existing_S":0,"BBL":3023990008}},
{"type":"Feature","geometry":{"type":"Point","coordinates":[-73.94571508599995,40.71110217000006]},"properties":{"OBJECTID":166,"Job_Type":"NB","Job_Number":321430475,"BIN_Number":3069573,"Enlargemen":"No","Borough_Na":"Brooklyn","Total_Cons":7583,"Enlargem_1":0,"Permit_Iss":"2017-10-04T00:00:00.000Z","Permit_Exp":"2018-05-17T00:00:00.000Z","Address":"223 MANHATTAN AVENUE","Proposed_S":5,"Existing_S":0,"BBL":3027870025}},
{"type":"Feature","geometry":{"type":"Point","coordinates":[-73.94571508599995,40.71110217000006]},"properties":{"OBJECTID":167,"Job_Type":"NB","Job_Number":321430475,"BIN_Number":3069573,"Enlargemen":"No","Borough_Na":"Brooklyn","Total_Cons":7583,"Enlargem_1":0,"Permit_Iss":"2017-10-04T00:00:00.000Z","Permit_Exp":"2018-05-17T00:00:00.000Z","Address":"223 MANHATTAN AVENUE","Proposed_S":5,"Existing_S":0,"BBL":3027870025}},
{"type":"Feature","geometry":{"type":"Point","coordinates":[-73.94571508599995,40.71110217000006]},"properties":{"OBJECTID":168,"Job_Type":"NB","Job_Number":321430475,"BIN_Number":3069573,"Enlargemen":"No","Borough_Na":"Brooklyn","Total_Cons":7583,"Enlargem_1":0,"Permit_Iss":"2018-03-27T00:00:00.000Z","Permit_Exp":"2019-03-27T00:00:00.000Z","Address":"223 MANHATTAN AVENUE","Proposed_S":5,"Existing_S":0,"BBL":3027870025}},
{"type":"Feature","geometry":{"type":"Point","coordinates":[-73.95857645699994,40.71134121700004]},"properties":{"OBJECTID":191,"Job_Type":"NB","Job_Number":321542666,"BIN_Number":3424439,"Enlargemen":"No","Borough_Na":"Brooklyn","Total_Cons":12990,"Enlargem_1":0,"Permit_Iss":"2017-12-19T00:00:00.000Z","Permit_Exp":"2018-10-31T00:00:00.000Z","Address":"219 SOUTH 3RD STREET","Proposed_S":6,"Existing_S":0,"BBL":3024200039}},
{"type":"Feature","geometry":{"type":"Point","coordinates":[-73.95857645699994,40.71134121700004]},"properties":{"OBJECTID":192,"Job_Type":"NB","Job_Number":321542666,"BIN_Number":3424439,"Enlargemen":"No","Borough_Na":"Brooklyn","Total_Cons":12990,"Enlargem_1":0,"Permit_Iss":"2017-12-19T00:00:00.000Z","Permit_Exp":"2018-10-31T00:00:00.000Z","Address":"219 SOUTH 3RD STREET","Proposed_S":6,"Existing_S":0,"BBL":3024200039}},
{"type":"Feature","geometry":{"type":"Point","coordinates":[-73.95857645699994,40.71134121700004]},"properties":{"OBJECTID":193,"Job_Type":"NB","Job_Number":321542666,"BIN_Number":3424439,"Enlargemen":"No","Borough_Na":"Brooklyn","Total_Cons":12990,"Enlargem_1":0,"Permit_Iss":"2017-12-19T00:00:00.000Z","Permit_Exp":"2018-12-19T00:00:00.000Z","Address":"219 SOUTH 3RD STREET","Proposed_S":6,"Existing_S":0,"BBL":3024200039}},
{"type":"Feature","geometry":{"type":"Point","coordinates":[-73.96293374599998,40.711425046000045]},"properties":{"OBJECTID":205,"Job_Type":"NB","Job_Number":321193196,"BIN_Number":3805860,"Enlargemen":"No","Borough_Na":"Brooklyn","Total_Cons":71644,"Enlargem_1":0,"Permit_Iss":"2018-03-19T00:00:00.000Z","Permit_Exp":"2019-03-19T00:00:00.000Z","Address":"361 BEDFORD AVE","Proposed_S":9,"Existing_S":0,"BBL":3024440004}},
{"type":"Feature","geometry":{"type":"Point","coordinates":[-73.96293374599998,40.711425046000045]},"properties":{"OBJECTID":206,"Job_Type":"NB","Job_Number":321193196,"BIN_Number":3805860,"Enlargemen":"No","Borough_Na":"Brooklyn","Total_Cons":71644,"Enlargem_1":0,"Permit_Iss":"2018-03-19T00:00:00.000Z","Permit_Exp":"2019-03-19T00:00:00.000Z","Address":"361 BEDFORD AVE","Proposed_S":9,"Existing_S":0,"BBL":3024440004}},
{"type":"Feature","geometry":{"type":"Point","coordinates":[-73.94332636399997,40.71145123100007]},"properties":{"OBJECTID":215,"Job_Type":"NB","Job_Number":320516633,"BIN_Number":3069609,"Enlargemen":"No","Borough_Na":"Brooklyn","Total_Cons":10504,"Enlargem_1":0,"Permit_Iss":"2018-03-23T00:00:00.000Z","Permit_Exp":"2018-09-23T00:00:00.000Z","Address":"738 GRAND STREET","Proposed_S":6,"Existing_S":0,"BBL":3027890010}},
{"type":"Feature","geometry":{"type":"Point","coordinates":[-73.94875527299996,40.71160169600006]},"properties":{"OBJECTID":230,"Job_Type":"NB","Job_Number":321197129,"BIN_Number":3069342,"Enlargemen":"No","Borough_Na":"Brooklyn","Total_Cons":11726,"Enlargem_1":0,"Permit_Iss":"2018-03-20T00:00:00.000Z","Permit_Exp":"2018-05-03T00:00:00.000Z","Address":"490 LORIMER ST","Proposed_S":5,"Existing_S":0,"BBL":3027800002}},
{"type":"Feature","geometry":{"type":"Point","coordinates":[-73.94875527299996,40.71160169600006]},"properties":{"OBJECTID":231,"Job_Type":"NB","Job_Number":321197129,"BIN_Number":3069342,"Enlargemen":"No","Borough_Na":"Brooklyn","Total_Cons":11726,"Enlargem_1":0,"Permit_Iss":"2018-02-08T00:00:00.000Z","Permit_Exp":"2019-02-08T00:00:00.000Z","Address":"490 LORIMER ST","Proposed_S":5,"Existing_S":0,"BBL":3027800002}},
{"type":"Feature","geometry":{"type":"Point","coordinates":[-73.94875527299996,40.71160169600006]},"properties":{"OBJECTID":232,"Job_Type":"NB","Job_Number":321197129,"BIN_Number":3069342,"Enlargemen":"No","Borough_Na":"Brooklyn","Total_Cons":11726,"Enlargem_1":0,"Permit_Iss":"2018-03-20T00:00:00.000Z","Permit_Exp":"2018-05-03T00:00:00.000Z","Address":"490 LORIMER ST","Proposed_S":5,"Existing_S":0,"BBL":3027800002}},
{"type":"Feature","geometry":{"type":"Point","coordinates":[-73.96425029699998,40.71148035700003]},"properties":{"OBJECTID":236,"Job_Type":"NB","Job_Number":320597378,"BIN_Number":3424573,"Enlargemen":"No","Borough_Na":"Brooklyn","Total_Cons":61340,"Enlargem_1":0,"Permit_Iss":"2017-06-05T00:00:00.000Z","Permit_Exp":"2018-05-15T00:00:00.000Z","Address":"105 SOUTH 5TH STREET","Proposed_S":11,"Existing_S":0,"BBL":3024430037}},
{"type":"Feature","geometry":{"type":"Point","coordinates":[-73.96425029699998,40.71148035700003]},"properties":{"OBJECTID":237,"Job_Type":"NB","Job_Number":320597378,"BIN_Number":3424573,"Enlargemen":"No","Borough_Na":"Brooklyn","Total_Cons":0,"Enlargem_1":0,"Permit_Iss":"2017-10-09T00:00:00.000Z","Permit_Exp":"2018-10-09T00:00:00.000Z","Address":"105 SOUTH 5TH STREET","Proposed_S":0,"Existing_S":0,"BBL":3024430037}},
{"type":"Feature","geometry":{"type":"Point","coordinates":[-73.96425029699998,40.71148035700003]},"properties":{"OBJECTID":238,"Job_Type":"NB","Job_Number":320597378,"BIN_Number":3424573,"Enlargemen":"No","Borough_Na":"Brooklyn","Total_Cons":61340,"Enlargem_1":0,"Permit_Iss":"2017-06-05T00:00:00.000Z","Permit_Exp":"2018-05-15T00:00:00.000Z","Address":"105 SOUTH 5TH STREET","Proposed_S":11,"Existing_S":0,"BBL":3024430037}},
{"type":"Feature","geometry":{"type":"Point","coordinates":[-73.96425029699998,40.71148035700003]},"properties":{"OBJECTID":239,"Job_Type":"NB","Job_Number":320597378,"BIN_Number":3424573,"Enlargemen":"No","Borough_Na":"Brooklyn","Total_Cons":61340,"Enlargem_1":0,"Permit_Iss":"2017-06-05T00:00:00.000Z","Permit_Exp":"2018-06-05T00:00:00.000Z","Address":"105 SOUTH 5TH STREET","Proposed_S":11,"Existing_S":0,"BBL":3024430037}},
{"type":"Feature","geometry":{"type":"Point","coordinates":[-73.94500211899998,40.71181242000006]},"properties":{"OBJECTID":245,"Job_Type":"NB","Job_Number":320623250,"BIN_Number":3069426,"Enlargemen":"No","Borough_Na":"Brooklyn","Total_Cons":79560,"Enlargem_1":0,"Permit_Iss":"2018-02-20T00:00:00.000Z","Permit_Exp":"2018-05-14T00:00:00.000Z","Address":"695 GRAND STREET","Proposed_S":8,"Existing_S":0,"BBL":3027820036}},
{"type":"Feature","geometry":{"type":"Point","coordinates":[-73.94500211899998,40.71181242000006]},"properties":{"OBJECTID":246,"Job_Type":"NB","Job_Number":320623250,"BIN_Number":3069426,"Enlargemen":"No","Borough_Na":"Brooklyn","Total_Cons":0,"Enlargem_1":0,"Permit_Iss":"2017-10-23T00:00:00.000Z","Permit_Exp":"2018-10-23T00:00:00.000Z","Address":"695 GRAND STREET","Proposed_S":0,"Existing_S":0,"BBL":3027820036}},
{"type":"Feature","geometry":{"type":"Point","coordinates":[-73.94500211899998,40.71181242000006]},"properties":{"OBJECTID":247,"Job_Type":"NB","Job_Number":320623250,"BIN_Number":3069426,"Enlargemen":"No","Borough_Na":"Brooklyn","Total_Cons":79560,"Enlargem_1":0,"Permit_Iss":"2017-06-01T00:00:00.000Z","Permit_Exp":"2018-05-14T00:00:00.000Z","Address":"695 GRAND STREET","Proposed_S":8,"Existing_S":0,"BBL":3027820036}},
{"type":"Feature","geometry":{"type":"Point","coordinates":[-73.94500211899998,40.71181242000006]},"properties":{"OBJECTID":248,"Job_Type":"NB","Job_Number":320623250,"BIN_Number":3069426,"Enlargemen":"No","Borough_Na":"Brooklyn","Total_Cons":79560,"Enlargem_1":0,"Permit_Iss":"2017-06-01T00:00:00.000Z","Permit_Exp":"2018-06-01T00:00:00.000Z","Address":"695 GRAND STREET","Proposed_S":8,"Existing_S":0,"BBL":3027820036}},
{"type":"Feature","geometry":{"type":"Point","coordinates":[-73.94537772499996,40.71192309000003]},"properties":{"OBJECTID":267,"Job_Type":"NB","Job_Number":310058950,"BIN_Number":3396959,"Enlargemen":"No","Borough_Na":"Brooklyn","Total_Cons":10637,"Enlargem_1":0,"Permit_Iss":"2018-02-22T00:00:00.000Z","Permit_Exp":"2018-09-19T00:00:00.000Z","Address":"250 MANHATTAN AVENUE","Proposed_S":6,"Existing_S":0,"BBL":3027820001}},
{"type":"Feature","geometry":{"type":"Point","coordinates":[-73.94537772499996,40.71192309000003]},"properties":{"OBJECTID":268,"Job_Type":"NB","Job_Number":310058950,"BIN_Number":3396959,"Enlargemen":"No","Borough_Na":"Brooklyn","Total_Cons":10637,"Enlargem_1":0,"Permit_Iss":"2018-02-22T00:00:00.000Z","Permit_Exp":"2019-02-22T00:00:00.000Z","Address":"250 MANHATTAN AVENUE","Proposed_S":6,"Existing_S":0,"BBL":3027820001}},
{"type":"Feature","geometry":{"type":"Point","coordinates":[-73.93674592499997,40.711937884000065]},"properties":{"OBJECTID":269,"Job_Type":"NB","Job_Number":321513439,"BIN_Number":3425599,"Enlargemen":"No","Borough_Na":"Brooklyn","Total_Cons":6667,"Enlargem_1":0,"Permit_Iss":"2018-01-18T00:00:00.000Z","Permit_Exp":"2018-08-05T00:00:00.000Z","Address":"306 MAUJER STREET","Proposed_S":2,"Existing_S":0,"BBL":3030210017}},
{"type":"Feature","geometry":{"type":"Point","coordinates":[-73.93674592499997,40.711937884000065]},"properties":{"OBJECTID":270,"Job_Type":"NB","Job_Number":321513439,"BIN_Number":3425599,"Enlargemen":"No","Borough_Na":"Brooklyn","Total_Cons":0,"Enlargem_1":0,"Permit_Iss":"2018-03-06T00:00:00.000Z","Permit_Exp":"2019-03-06T00:00:00.000Z","Address":"306 MAUJER STREET","Proposed_S":0,"Existing_S":0,"BBL":3030210017}},
{"type":"Feature","geometry":{"type":"Point","coordinates":[-73.95033722699998,40.71199721800008]},"properties":{"OBJECTID":277,"Job_Type":"NB","Job_Number":320622607,"BIN_Number":3069158,"Enlargemen":"No","Borough_Na":"Brooklyn","Total_Cons":19041,"Enlargem_1":0,"Permit_Iss":"2018-02-26T00:00:00.000Z","Permit_Exp":"2019-02-08T00:00:00.000Z","Address":"21 POWERS STREET","Proposed_S":4,"Existing_S":0,"BBL":3027730048}},
{"type":"Feature","geometry":{"type":"Point","coordinates":[-73.95033722699998,40.71199721800008]},"properties":{"OBJECTID":278,"Job_Type":"NB","Job_Number":320622607,"BIN_Number":3069158,"Enlargemen":"No","Borough_Na":"Brooklyn","Total_Cons":19041,"Enlargem_1":0,"Permit_Iss":"2018-02-07T00:00:00.000Z","Permit_Exp":"2019-02-07T00:00:00.000Z","Address":"21 POWERS STREET","Proposed_S":4,"Existing_S":0,"BBL":3027730048}},
{"type":"Feature","geometry":{"type":"Point","coordinates":[-73.95033722699998,40.71199721800008]},"properties":{"OBJECTID":279,"Job_Type":"NB","Job_Number":320622607,"BIN_Number":3069158,"Enlargemen":"No","Borough_Na":"Brooklyn","Total_Cons":19041,"Enlargem_1":0,"Permit_Iss":"2018-02-26T00:00:00.000Z","Permit_Exp":"2019-02-08T00:00:00.000Z","Address":"21 POWERS STREET","Proposed_S":4,"Existing_S":0,"BBL":3027730048}},
{"type":"Feature","geometry":{"type":"Point","coordinates":[-73.95237905499994,40.712097277000055]},"properties":{"OBJECTID":288,"Job_Type":"NB","Job_Number":320623633,"BIN_Number":3319526,"Enlargemen":"No","Borough_Na":"Brooklyn","Total_Cons":76451,"Enlargem_1":0,"Permit_Iss":"2018-03-15T00:00:00.000Z","Permit_Exp":"2018-08-22T00:00:00.000Z","Address":"147 HOPE STREET","Proposed_S":6,"Existing_S":0,"BBL":3023750001}},
{"type":"Feature","geometry":{"type":"Point","coordinates":[-73.95237905499994,40.712097277000055]},"properties":{"OBJECTID":289,"Job_Type":"NB","Job_Number":320623633,"BIN_Number":3319526,"Enlargemen":"No","Borough_Na":"Brooklyn","Total_Cons":76451,"Enlargem_1":0,"Permit_Iss":"2018-03-15T00:00:00.000Z","Permit_Exp":"2019-03-15T00:00:00.000Z","Address":"147 HOPE STREET","Proposed_S":6,"Existing_S":0,"BBL":3023750001}},
{"type":"Feature","geometry":{"type":"Point","coordinates":[-73.95099968899996,40.71227933200004]},"properties":{"OBJECTID":305,"Job_Type":"NB","Job_Number":321065379,"BIN_Number":3069126,"Enlargemen":"No","Borough_Na":"Brooklyn","Total_Cons":17731,"Enlargem_1":0,"Permit_Iss":"2017-12-29T00:00:00.000Z","Permit_Exp":"2018-12-14T00:00:00.000Z","Address":"100 AINSLIE STREET","Proposed_S":8,"Existing_S":0,"BBL":3027730008}},
{"type":"Feature","geometry":{"type":"Point","coordinates":[-73.95099968899996,40.71227933200004]},"properties":{"OBJECTID":306,"Job_Type":"NB","Job_Number":321065379,"BIN_Number":3069126,"Enlargemen":"No","Borough_Na":"Brooklyn","Total_Cons":17731,"Enlargem_1":0,"Permit_Iss":"2017-12-29T00:00:00.000Z","Permit_Exp":"2018-12-29T00:00:00.000Z","Address":"100 AINSLIE STREET","Proposed_S":8,"Existing_S":0,"BBL":3027730008}},
{"type":"Feature","geometry":{"type":"Point","coordinates":[-73.93704642499995,40.71236767400006]},"properties":{"OBJECTID":315,"Job_Type":"NB","Job_Number":321527344,"BIN_Number":3070772,"Enlargemen":"No","Borough_Na":"Brooklyn","Total_Cons":4779,"Enlargem_1":0,"Permit_Iss":"2018-02-26T00:00:00.000Z","Permit_Exp":"2018-08-05T00:00:00.000Z","Address":"315 MAUJER STREET","Proposed_S":2,"Existing_S":0,"BBL":3030190073}},
{"type":"Feature","geometry":{"type":"Point","coordinates":[-73.93704642499995,40.71236767400006]},"properties":{"OBJECTID":316,"Job_Type":"NB","Job_Number":321527344,"BIN_Number":3070772,"Enlargemen":"No","Borough_Na":"Brooklyn","Total_Cons":0,"Enlargem_1":0,"Permit_Iss":"2018-03-08T00:00:00.000Z","Permit_Exp":"2019-03-08T00:00:00.000Z","Address":"315 MAUJER STREET","Proposed_S":0,"Existing_S":0,"BBL":3030190073}},
{"type":"Feature","geometry":{"type":"Point","coordinates":[-73.96388544099995,40.71247933700005]},"properties":{"OBJECTID":341,"Job_Type":"NB","Job_Number":321355957,"BIN_Number":3398047,"Enlargemen":"No","Borough_Na":"Brooklyn","Total_Cons":4178,"Enlargem_1":0,"Permit_Iss":"2018-01-30T00:00:00.000Z","Permit_Exp":"2019-01-24T00:00:00.000Z","Address":"101 SOUTH 4TH STREET","Proposed_S":4,"Existing_S":0,"BBL":3024300038}},
{"type":"Feature","geometry":{"type":"Point","coordinates":[-73.96388544099995,40.71247933700005]},"properties":{"OBJECTID":342,"Job_Type":"NB","Job_Number":321355957,"BIN_Number":3398047,"Enlargemen":"No","Borough_Na":"Brooklyn","Total_Cons":4178,"Enlargem_1":0,"Permit_Iss":"2018-01-30T00:00:00.000Z","Permit_Exp":"2019-01-30T00:00:00.000Z","Address":"101 SOUTH 4TH STREET","Proposed_S":4,"Existing_S":0,"BBL":3024300038}},
{"type":"Feature","geometry":{"type":"Point","coordinates":[-73.96740231399997,40.71263683800004]},"properties":{"OBJECTID":356,"Job_Type":"NB","Job_Number":320624776,"BIN_Number":3063395,"Enlargemen":"No","Borough_Na":"Brooklyn","Total_Cons":15300,"Enlargem_1":0,"Permit_Iss":"2017-06-29T00:00:00.000Z","Permit_Exp":"2018-06-29T00:00:00.000Z","Address":"349 KENT AVENUE","Proposed_S":6,"Existing_S":0,"BBL":3024410001}},
{"type":"Feature","geometry":{"type":"Point","coordinates":[-73.96740231399997,40.71263683800004]},"properties":{"OBJECTID":357,"Job_Type":"NB","Job_Number":320624776,"BIN_Number":3063395,"Enlargemen":"No","Borough_Na":"Brooklyn","Total_Cons":0,"Enlargem_1":0,"Permit_Iss":"2017-05-18T00:00:00.000Z","Permit_Exp":"2018-05-18T00:00:00.000Z","Address":"349 KENT AVENUE","Proposed_S":0,"Existing_S":0,"BBL":3024410001}},
{"type":"Feature","geometry":{"type":"Point","coordinates":[-73.96740231399997,40.71263683800004]},"properties":{"OBJECTID":358,"Job_Type":"NB","Job_Number":320624776,"BIN_Number":3063395,"Enlargemen":"No","Borough_Na":"Brooklyn","Total_Cons":15300,"Enlargem_1":0,"Permit_Iss":"2017-06-29T00:00:00.000Z","Permit_Exp":"2018-06-29T00:00:00.000Z","Address":"349 KENT AVENUE","Proposed_S":6,"Existing_S":0,"BBL":3024410001}},
{"type":"Feature","geometry":{"type":"Point","coordinates":[-73.95556375599995,40.71254230000005]},"properties":{"OBJECTID":359,"Job_Type":"NB","Job_Number":321108190,"BIN_Number":3256351,"Enlargemen":"No","Borough_Na":"Brooklyn","Total_Cons":4399,"Enlargem_1":0,"Permit_Iss":"2018-01-04T00:00:00.000Z","Permit_Exp":"2019-01-17T00:00:00.000Z","Address":"52 MARCY AV","Proposed_S":3,"Existing_S":0,"BBL":3023840022}},
{"type":"Feature","geometry":{"type":"Point","coordinates":[-73.95556375599995,40.71254230000005]},"properties":{"OBJECTID":360,"Job_Type":"NB","Job_Number":321108207,"BIN_Number":3256351,"Enlargemen":"No","Borough_Na":"Brooklyn","Total_Cons":4399,"Enlargem_1":0,"Permit_Iss":"2018-01-04T00:00:00.000Z","Permit_Exp":"2019-01-17T00:00:00.000Z","Address":"54 MARCY AV","Proposed_S":3,"Existing_S":0,"BBL":3023840022}},
{"type":"Feature","geometry":{"type":"Point","coordinates":[-73.95556375599995,40.71254230000005]},"properties":{"OBJECTID":361,"Job_Type":"NB","Job_Number":321108216,"BIN_Number":3256351,"Enlargemen":"No","Borough_Na":"Brooklyn","Total_Cons":4399,"Enlargem_1":0,"Permit_Iss":"2018-01-04T00:00:00.000Z","Permit_Exp":"2019-01-17T00:00:00.000Z","Address":"357 GRAND ST","Proposed_S":3,"Existing_S":0,"BBL":3023840022}},
{"type":"Feature","geometry":{"type":"Point","coordinates":[-73.95556375599995,40.71254230000005]},"properties":{"OBJECTID":362,"Job_Type":"NB","Job_Number":321108225,"BIN_Number":3256351,"Enlargemen":"No","Borough_Na":"Brooklyn","Total_Cons":4399,"Enlargem_1":0,"Permit_Iss":"2018-01-03T00:00:00.000Z","Permit_Exp":"2019-01-17T00:00:00.000Z","Address":"56 MARCY AV","Proposed_S":3,"Existing_S":0,"BBL":3023840022}},
{"type":"Feature","geometry":{"type":"Point","coordinates":[-73.95556375599995,40.71254230000005]},"properties":{"OBJECTID":363,"Job_Type":"NB","Job_Number":321108190,"BIN_Number":3256351,"Enlargemen":"No","Borough_Na":"Brooklyn","Total_Cons":4399,"Enlargem_1":0,"Permit_Iss":"2017-11-15T00:00:00.000Z","Permit_Exp":"2018-11-15T00:00:00.000Z","Address":"52 MARCY AV","Proposed_S":3,"Existing_S":0,"BBL":3023840022}},
{"type":"Feature","geometry":{"type":"Point","coordinates":[-73.95556375599995,40.71254230000005]},"properties":{"OBJECTID":364,"Job_Type":"NB","Job_Number":321108190,"BIN_Number":3256351,"Enlargemen":"No","Borough_Na":"Brooklyn","Total_Cons":4399,"Enlargem_1":0,"Permit_Iss":"2018-03-07T00:00:00.000Z","Permit_Exp":"2019-03-07T00:00:00.000Z","Address":"52 MARCY AV","Proposed_S":3,"Existing_S":0,"BBL":3023840022}},
{"type":"Feature","geometry":{"type":"Point","coordinates":[-73.95556375599995,40.71254230000005]},"properties":{"OBJECTID":365,"Job_Type":"NB","Job_Number":321108207,"BIN_Number":3256351,"Enlargemen":"No","Borough_Na":"Brooklyn","Total_Cons":4399,"Enlargem_1":0,"Permit_Iss":"2017-11-15T00:00:00.000Z","Permit_Exp":"2018-11-15T00:00:00.000Z","Address":"54 MARCY AV","Proposed_S":3,"Existing_S":0,"BBL":3023840022}},
{"type":"Feature","geometry":{"type":"Point","coordinates":[-73.95556375599995,40.71254230000005]},"properties":{"OBJECTID":366,"Job_Type":"NB","Job_Number":321108207,"BIN_Number":3256351,"Enlargemen":"No","Borough_Na":"Brooklyn","Total_Cons":4399,"Enlargem_1":0,"Permit_Iss":"2018-03-07T00:00:00.000Z","Permit_Exp":"2019-03-07T00:00:00.000Z","Address":"54 MARCY AV","Proposed_S":3,"Existing_S":0,"BBL":3023840022}},
{"type":"Feature","geometry":{"type":"Point","coordinates":[-73.95556375599995,40.71254230000005]},"properties":{"OBJECTID":367,"Job_Type":"NB","Job_Number":321108216,"BIN_Number":3256351,"Enlargemen":"No","Borough_Na":"Brooklyn","Total_Cons":4399,"Enlargem_1":0,"Permit_Iss":"2017-11-15T00:00:00.000Z","Permit_Exp":"2018-11-15T00:00:00.000Z","Address":"357 GRAND ST","Proposed_S":3,"Existing_S":0,"BBL":3023840022}},
{"type":"Feature","geometry":{"type":"Point","coordinates":[-73.95556375599995,40.71254230000005]},"properties":{"OBJECTID":368,"Job_Type":"NB","Job_Number":321108216,"BIN_Number":3256351,"Enlargemen":"No","Borough_Na":"Brooklyn","Total_Cons":4399,"Enlargem_1":0,"Permit_Iss":"2018-03-07T00:00:00.000Z","Permit_Exp":"2019-03-07T00:00:00.000Z","Address":"357 GRAND ST","Proposed_S":3,"Existing_S":0,"BBL":3023840022}},
{"type":"Feature","geometry":{"type":"Point","coordinates":[-73.95556375599995,40.71254230000005]},"properties":{"OBJECTID":369,"Job_Type":"NB","Job_Number":321108225,"BIN_Number":3256351,"Enlargemen":"No","Borough_Na":"Brooklyn","Total_Cons":4399,"Enlargem_1":0,"Permit_Iss":"2017-11-15T00:00:00.000Z","Permit_Exp":"2018-11-15T00:00:00.000Z","Address":"56 MARCY AV","Proposed_S":3,"Existing_S":0,"BBL":3023840022}},
{"type":"Feature","geometry":{"type":"Point","coordinates":[-73.95556375599995,40.71254230000005]},"properties":{"OBJECTID":370,"Job_Type":"NB","Job_Number":321108225,"BIN_Number":3256351,"Enlargemen":"No","Borough_Na":"Brooklyn","Total_Cons":4399,"Enlargem_1":0,"Permit_Iss":"2018-03-07T00:00:00.000Z","Permit_Exp":"2019-03-07T00:00:00.000Z","Address":"56 MARCY AV","Proposed_S":3,"Existing_S":0,"BBL":3023840022}},
{"type":"Feature","geometry":{"type":"Point","coordinates":[-73.93878687199998,40.71266909500008]},"properties":{"OBJECTID":381,"Job_Type":"NB","Job_Number":320058897,"BIN_Number":3425673,"Enlargemen":"No","Borough_Na":"Brooklyn","Total_Cons":37706,"Enlargem_1":0,"Permit_Iss":"2017-12-11T00:00:00.000Z","Permit_Exp":"2018-12-11T00:00:00.000Z","Address":"885 GRAND STREET","Proposed_S":8,"Existing_S":0,"BBL":3029220034}},
{"type":"Feature","geometry":{"type":"Point","coordinates":[-73.95064348299996,40.712600128000076]},"properties":{"OBJECTID":385,"Job_Type":"NB","Job_Number":321268230,"BIN_Number":3068965,"Enlargemen":"No","Borough_Na":"Brooklyn","Total_Cons":11192,"Enlargem_1":0,"Permit_Iss":"2018-02-27T00:00:00.000Z","Permit_Exp":"2019-02-27T00:00:00.000Z","Address":"95 AINSLIE ST","Proposed_S":4,"Existing_S":0,"BBL":3027670058}},
{"type":"Feature","geometry":{"type":"Point","coordinates":[-73.95064348299996,40.712600128000076]},"properties":{"OBJECTID":386,"Job_Type":"NB","Job_Number":321268230,"BIN_Number":3068965,"Enlargemen":"No","Borough_Na":"Brooklyn","Total_Cons":0,"Enlargem_1":0,"Permit_Iss":"2017-11-09T00:00:00.000Z","Permit_Exp":"2018-11-09T00:00:00.000Z","Address":"95 AINSLIE ST","Proposed_S":0,"Existing_S":0,"BBL":3027670058}},
{"type":"Feature","geometry":{"type":"Point","coordinates":[-73.95064348299996,40.712600128000076]},"properties":{"OBJECTID":387,"Job_Type":"NB","Job_Number":321268230,"BIN_Number":3068965,"Enlargemen":"No","Borough_Na":"Brooklyn","Total_Cons":11192,"Enlargem_1":0,"Permit_Iss":"2018-02-27T00:00:00.000Z","Permit_Exp":"2019-02-27T00:00:00.000Z","Address":"95 AINSLIE ST","Proposed_S":4,"Existing_S":0,"BBL":3027670058}},
{"type":"Feature","geometry":{"type":"Point","coordinates":[-73.94551055199997,40.71269992100008]},"properties":{"OBJECTID":388,"Job_Type":"NB","Job_Number":320909451,"BIN_Number":3425342,"Enlargemen":"No","Borough_Na":"Brooklyn","Total_Cons":12790,"Enlargem_1":0,"Permit_Iss":"2017-12-12T00:00:00.000Z","Permit_Exp":"2018-05-18T00:00:00.000Z","Address":"270 MANHATTAN AVENUE","Proposed_S":4,"Existing_S":0,"BBL":3027760006}},
{"type":"Feature","geometry":{"type":"Point","coordinates":[-73.94551055199997,40.71269992100008]},"properties":{"OBJECTID":389,"Job_Type":"NB","Job_Number":320909451,"BIN_Number":3425342,"Enlargemen":"No","Borough_Na":"Brooklyn","Total_Cons":12790,"Enlargem_1":0,"Permit_Iss":"2017-12-12T00:00:00.000Z","Permit_Exp":"2018-05-18T00:00:00.000Z","Address":"270 MANHATTAN AVENUE","Proposed_S":4,"Existing_S":0,"BBL":3027760006}},
{"type":"Feature","geometry":{"type":"Point","coordinates":[-73.94551055199997,40.71269992100008]},"properties":{"OBJECTID":390,"Job_Type":"NB","Job_Number":320909451,"BIN_Number":3425342,"Enlargemen":"No","Borough_Na":"Brooklyn","Total_Cons":12790,"Enlargem_1":0,"Permit_Iss":"2017-12-12T00:00:00.000Z","Permit_Exp":"2018-12-12T00:00:00.000Z","Address":"270 MANHATTAN AVENUE","Proposed_S":4,"Existing_S":0,"BBL":3027760006}},
{"type":"Feature","geometry":{"type":"Point","coordinates":[-73.93918083799997,40.712930639000035]},"properties":{"OBJECTID":408,"Job_Type":"NB","Job_Number":320056498,"BIN_Number":3424968,"Enlargemen":"No","Borough_Na":"Brooklyn","Total_Cons":6963,"Enlargem_1":0,"Permit_Iss":"2017-08-18T00:00:00.000Z","Permit_Exp":"2018-04-20T00:00:00.000Z","Address":"290 POWERS STREET","Proposed_S":4,"Existing_S":0,"BBL":3029220027}},
{"type":"Feature","geometry":{"type":"Point","coordinates":[-73.93918083799997,40.712930639000035]},"properties":{"OBJECTID":409,"Job_Type":"NB","Job_Number":320056498,"BIN_Number":3424968,"Enlargemen":"No","Borough_Na":"Brooklyn","Total_Cons":6963,"Enlargem_1":0,"Permit_Iss":"2017-05-11T00:00:00.000Z","Permit_Exp":"2018-05-11T00:00:00.000Z","Address":"290 POWERS STREET","Proposed_S":4,"Existing_S":0,"BBL":3029220027}},
{"type":"Feature","geometry":{"type":"Point","coordinates":[-73.93918083799997,40.712930639000035]},"properties":{"OBJECTID":410,"Job_Type":"NB","Job_Number":320056498,"BIN_Number":3424968,"Enlargemen":"No","Borough_Na":"Brooklyn","Total_Cons":6963,"Enlargem_1":0,"Permit_Iss":"2017-10-20T00:00:00.000Z","Permit_Exp":"2018-10-20T00:00:00.000Z","Address":"290 POWERS STREET","Proposed_S":4,"Existing_S":0,"BBL":3029220027}},
{"type":"Feature","geometry":{"type":"Point","coordinates":[-73.94212328699996,40.71288491200005]},"properties":{"OBJECTID":411,"Job_Type":"NB","Job_Number":320625677,"BIN_Number":3425448,"Enlargemen":"No","Borough_Na":"Brooklyn","Total_Cons":5717,"Enlargem_1":0,"Permit_Iss":"2018-03-21T00:00:00.000Z","Permit_Exp":"2018-08-15T00:00:00.000Z","Address":"320 HUMBOLDT STREET","Proposed_S":4,"Existing_S":0,"BBL":3027780004}},
{"type":"Feature","geometry":{"type":"Point","coordinates":[-73.94212328699996,40.71288491200005]},"properties":{"OBJECTID":412,"Job_Type":"NB","Job_Number":320625677,"BIN_Number":3425448,"Enlargemen":"No","Borough_Na":"Brooklyn","Total_Cons":5717,"Enlargem_1":0,"Permit_Iss":"2017-07-07T00:00:00.000Z","Permit_Exp":"2018-07-07T00:00:00.000Z","Address":"320 HUMBOLDT STREET","Proposed_S":4,"Existing_S":0,"BBL":3027780004}},
{"type":"Feature","geometry":{"type":"Point","coordinates":[-73.94212328699996,40.71288491200005]},"properties":{"OBJECTID":413,"Job_Type":"NB","Job_Number":320625677,"BIN_Number":3425448,"Enlargemen":"No","Borough_Na":"Brooklyn","Total_Cons":5717,"Enlargem_1":0,"Permit_Iss":"2017-07-21T00:00:00.000Z","Permit_Exp":"2018-07-21T00:00:00.000Z","Address":"320 HUMBOLDT STREET","Proposed_S":4,"Existing_S":0,"BBL":3027780004}},
{"type":"Feature","geometry":{"type":"Point","coordinates":[-73.94896767099993,40.71289099100005]},"properties":{"OBJECTID":415,"Job_Type":"NB","Job_Number":321197094,"BIN_Number":3068969,"Enlargemen":"No","Borough_Na":"Brooklyn","Total_Cons":14332,"Enlargem_1":0,"Permit_Iss":"2018-03-20T00:00:00.000Z","Permit_Exp":"2018-05-03T00:00:00.000Z","Address":"532 LORIMER ST","Proposed_S":5,"Existing_S":0,"BBL":3027680001}},
{"type":"Feature","geometry":{"type":"Point","coordinates":[-73.94896767099993,40.71289099100005]},"properties":{"OBJECTID":416,"Job_Type":"NB","Job_Number":321197094,"BIN_Number":3068969,"Enlargemen":"No","Borough_Na":"Brooklyn","Total_Cons":14332,"Enlargem_1":0,"Permit_Iss":"2018-02-12T00:00:00.000Z","Permit_Exp":"2019-02-12T00:00:00.000Z","Address":"532 LORIMER ST","Proposed_S":5,"Existing_S":0,"BBL":3027680001}},
{"type":"Feature","geometry":{"type":"Point","coordinates":[-73.94896767099993,40.71289099100005]},"properties":{"OBJECTID":417,"Job_Type":"NB","Job_Number":321197094,"BIN_Number":3068969,"Enlargemen":"No","Borough_Na":"Brooklyn","Total_Cons":14332,"Enlargem_1":0,"Permit_Iss":"2018-03-20T00:00:00.000Z","Permit_Exp":"2018-05-03T00:00:00.000Z","Address":"532 LORIMER ST","Proposed_S":5,"Existing_S":0,"BBL":3027680001}},
{"type":"Feature","geometry":{"type":"Point","coordinates":[-73.94945658299997,40.71293777100004]},"properties":{"OBJECTID":418,"Job_Type":"NB","Job_Number":320597323,"BIN_Number":3423975,"Enlargemen":"No","Borough_Na":"Brooklyn","Total_Cons":15703,"Enlargem_1":0,"Permit_Iss":"2018-01-05T00:00:00.000Z","Permit_Exp":"2018-10-03T00:00:00.000Z","Address":"535 LORIMER STREET","Proposed_S":5,"Existing_S":0,"BBL":3027670037}},
{"type":"Feature","geometry":{"type":"Point","coordinates":[-73.94945658299997,40.71293777100004]},"properties":{"OBJECTID":419,"Job_Type":"NB","Job_Number":320597323,"BIN_Number":3423975,"Enlargemen":"No","Borough_Na":"Brooklyn","Total_Cons":0,"Enlargem_1":0,"Permit_Iss":"2017-07-17T00:00:00.000Z","Permit_Exp":"2018-07-17T00:00:00.000Z","Address":"535 LORIMER STREET","Proposed_S":0,"Existing_S":0,"BBL":3027670037}},
{"type":"Feature","geometry":{"type":"Point","coordinates":[-73.94945658299997,40.71293777100004]},"properties":{"OBJECTID":420,"Job_Type":"NB","Job_Number":320597323,"BIN_Number":3423975,"Enlargemen":"No","Borough_Na":"Brooklyn","Total_Cons":15703,"Enlargem_1":0,"Permit_Iss":"2018-01-05T00:00:00.000Z","Permit_Exp":"2018-10-03T00:00:00.000Z","Address":"535 LORIMER STREET","Proposed_S":5,"Existing_S":0,"BBL":3027670037}},
{"type":"Feature","geometry":{"type":"Point","coordinates":[-73.94945658299997,40.71293777100004]},"properties":{"OBJECTID":421,"Job_Type":"NB","Job_Number":320597323,"BIN_Number":3423975,"Enlargemen":"No","Borough_Na":"Brooklyn","Total_Cons":15703,"Enlargem_1":0,"Permit_Iss":"2018-01-05T00:00:00.000Z","Permit_Exp":"2019-01-05T00:00:00.000Z","Address":"535 LORIMER STREET","Proposed_S":5,"Existing_S":0,"BBL":3027670037}},
{"type":"Feature","geometry":{"type":"Point","coordinates":[-73.93849794599998,40.71305320700003]},"properties":{"OBJECTID":442,"Job_Type":"NB","Job_Number":320461095,"BIN_Number":3856570,"Enlargemen":"No","Borough_Na":"Brooklyn","Total_Cons":24936,"Enlargem_1":0,"Permit_Iss":"2017-07-18T00:00:00.000Z","Permit_Exp":"2018-07-18T00:00:00.000Z","Address":"14 OLIVE STREET","Proposed_S":9,"Existing_S":0,"BBL":3029230003}},
{"type":"Feature","geometry":{"type":"Point","coordinates":[-73.95966765999998,40.71294020900007]},"properties":{"OBJECTID":451,"Job_Type":"NB","Job_Number":320612379,"BIN_Number":3423324,"Enlargemen":"No","Borough_Na":"Brooklyn","Total_Cons":0,"Enlargem_1":0,"Permit_Iss":"2017-09-15T00:00:00.000Z","Permit_Exp":"2018-09-15T00:00:00.000Z","Address":"196 SOUTH FIRST STREET","Proposed_S":0,"Existing_S":0,"BBL":3024070011}},
{"type":"Feature","geometry":{"type":"Point","coordinates":[-73.95525670599994,40.71320366800006]},"properties":{"OBJECTID":468,"Job_Type":"NB","Job_Number":321182518,"BIN_Number":3062517,"Enlargemen":"No","Borough_Na":"Brooklyn","Total_Cons":5307,"Enlargem_1":0,"Permit_Iss":"2018-01-11T00:00:00.000Z","Permit_Exp":"2019-01-17T00:00:00.000Z","Address":"69 HOPE STREET","Proposed_S":4,"Existing_S":0,"BBL":3023690037}},
{"type":"Feature","geometry":{"type":"Point","coordinates":[-73.95525670599994,40.71320366800006]},"properties":{"OBJECTID":469,"Job_Type":"NB","Job_Number":321182518,"BIN_Number":3062517,"Enlargemen":"No","Borough_Na":"Brooklyn","Total_Cons":5307,"Enlargem_1":0,"Permit_Iss":"2017-04-19T00:00:00.000Z","Permit_Exp":"2018-04-19T00:00:00.000Z","Address":"69 HOPE STREET","Proposed_S":4,"Existing_S":0,"BBL":3023690037}},
{"type":"Feature","geometry":{"type":"Point","coordinates":[-73.95525670599994,40.71320366800006]},"properties":{"OBJECTID":470,"Job_Type":"NB","Job_Number":321182518,"BIN_Number":3062517,"Enlargemen":"No","Borough_Na":"Brooklyn","Total_Cons":5307,"Enlargem_1":0,"Permit_Iss":"2018-01-11T00:00:00.000Z","Permit_Exp":"2019-01-17T00:00:00.000Z","Address":"69 HOPE STREET","Proposed_S":4,"Existing_S":0,"BBL":3023690037}},
{"type":"Feature","geometry":{"type":"Point","coordinates":[-73.95176388999994,40.71326533600006]},"properties":{"OBJECTID":476,"Job_Type":"NB","Job_Number":320136349,"BIN_Number":3062535,"Enlargemen":"No","Borough_Na":"Brooklyn","Total_Cons":18046,"Enlargem_1":0,"Permit_Iss":"2018-03-09T00:00:00.000Z","Permit_Exp":"2018-07-20T00:00:00.000Z","Address":"437 UNION AVENUE","Proposed_S":5,"Existing_S":0,"BBL":3023720009}},
{"type":"Feature","geometry":{"type":"Point","coordinates":[-73.95759409699997,40.71328689600006]},"properties":{"OBJECTID":477,"Job_Type":"NB","Job_Number":320928305,"BIN_Number":3062688,"Enlargemen":"No","Borough_Na":"Brooklyn","Total_Cons":15099,"Enlargem_1":0,"Permit_Iss":"2017-07-25T00:00:00.000Z","Permit_Exp":"2018-07-24T00:00:00.000Z","Address":"285 GRAND STREET","Proposed_S":4,"Existing_S":0,"BBL":3023830034}},
{"type":"Feature","geometry":{"type":"Point","coordinates":[-73.95759409699997,40.71328689600006]},"properties":{"OBJECTID":478,"Job_Type":"NB","Job_Number":320928305,"BIN_Number":3062688,"Enlargemen":"No","Borough_Na":"Brooklyn","Total_Cons":0,"Enlargem_1":0,"Permit_Iss":"2017-05-26T00:00:00.000Z","Permit_Exp":"2018-05-26T00:00:00.000Z","Address":"285 GRAND STREET","Proposed_S":0,"Existing_S":0,"BBL":3023830034}},
{"type":"Feature","geometry":{"type":"Point","coordinates":[-73.96277036699996,40.71332436800003]},"properties":{"OBJECTID":484,"Job_Type":"NB","Job_Number":320916602,"BIN_Number":3414205,"Enlargemen":"No","Borough_Na":"Brooklyn","Total_Cons":7655,"Enlargem_1":0,"Permit_Iss":"2017-12-29T00:00:00.000Z","Permit_Exp":"2018-09-09T00:00:00.000Z","Address":"126 SOUTH 2 STREET","Proposed_S":6,"Existing_S":0,"BBL":3024170017}},
{"type":"Feature","geometry":{"type":"Point","coordinates":[-73.96277036699996,40.71332436800003]},"properties":{"OBJECTID":485,"Job_Type":"NB","Job_Number":320916602,"BIN_Number":3414205,"Enlargemen":"No","Borough_Na":"Brooklyn","Total_Cons":0,"Enlargem_1":0,"Permit_Iss":"2017-12-26T00:00:00.000Z","Permit_Exp":"2018-12-26T00:00:00.000Z","Address":"126 SOUTH 2 STREET","Proposed_S":0,"Existing_S":0,"BBL":3024170017}},
{"type":"Feature","geometry":{"type":"Point","coordinates":[-73.96277036699996,40.71332436800003]},"properties":{"OBJECTID":486,"Job_Type":"NB","Job_Number":320916602,"BIN_Number":3414205,"Enlargemen":"No","Borough_Na":"Brooklyn","Total_Cons":7655,"Enlargem_1":0,"Permit_Iss":"2017-09-01T00:00:00.000Z","Permit_Exp":"2018-09-01T00:00:00.000Z","Address":"126 SOUTH 2 STREET","Proposed_S":6,"Existing_S":0,"BBL":3024170017}},
{"type":"Feature","geometry":{"type":"Point","coordinates":[-73.94319417499997,40.71339597100007]},"properties":{"OBJECTID":495,"Job_Type":"NB","Job_Number":320625622,"BIN_Number":3425431,"Enlargemen":"No","Borough_Na":"Brooklyn","Total_Cons":7084,"Enlargem_1":0,"Permit_Iss":"2017-11-17T00:00:00.000Z","Permit_Exp":"2018-05-07T00:00:00.000Z","Address":"267 AINSLIE STREET","Proposed_S":4,"Existing_S":0,"BBL":3027710036}},
{"type":"Feature","geometry":{"type":"Point","coordinates":[-73.94319417499997,40.71339597100007]},"properties":{"OBJECTID":496,"Job_Type":"NB","Job_Number":320625622,"BIN_Number":3425431,"Enlargemen":"No","Borough_Na":"Brooklyn","Total_Cons":7084,"Enlargem_1":0,"Permit_Iss":"2017-07-03T00:00:00.000Z","Permit_Exp":"2018-07-03T00:00:00.000Z","Address":"267 AINSLIE STREET","Proposed_S":4,"Existing_S":0,"BBL":3027710036}},
{"type":"Feature","geometry":{"type":"Point","coordinates":[-73.94319417499997,40.71339597100007]},"properties":{"OBJECTID":497,"Job_Type":"NB","Job_Number":320625622,"BIN_Number":3425431,"Enlargemen":"No","Borough_Na":"Brooklyn","Total_Cons":7084,"Enlargem_1":0,"Permit_Iss":"2017-11-17T00:00:00.000Z","Permit_Exp":"2018-11-17T00:00:00.000Z","Address":"267 AINSLIE STREET","Proposed_S":4,"Existing_S":0,"BBL":3027710036}},
{"type":"Feature","geometry":{"type":"Point","coordinates":[-73.95497878199996,40.71345882300005]},"properties":{"OBJECTID":510,"Job_Type":"NB","Job_Number":321128329,"BIN_Number":3425787,"Enlargemen":"No","Borough_Na":"Brooklyn","Total_Cons":5307,"Enlargem_1":0,"Permit_Iss":"2018-01-12T00:00:00.000Z","Permit_Exp":"2019-01-17T00:00:00.000Z","Address":"26 MARCY AV","Proposed_S":4,"Existing_S":0,"BBL":3023690027}},
{"type":"Feature","geometry":{"type":"Point","coordinates":[-73.95497878199996,40.71345882300005]},"properties":{"OBJECTID":511,"Job_Type":"NB","Job_Number":321128347,"BIN_Number":3425786,"Enlargemen":"No","Borough_Na":"Brooklyn","Total_Cons":5307,"Enlargem_1":0,"Permit_Iss":"2018-01-12T00:00:00.000Z","Permit_Exp":"2019-01-17T00:00:00.000Z","Address":"24 MARCY AV","Proposed_S":4,"Existing_S":0,"BBL":3023690027}},
{"type":"Feature","geometry":{"type":"Point","coordinates":[-73.95497878199996,40.71345882300005]},"properties":{"OBJECTID":512,"Job_Type":"NB","Job_Number":321128329,"BIN_Number":3425787,"Enlargemen":"No","Borough_Na":"Brooklyn","Total_Cons":5307,"Enlargem_1":0,"Permit_Iss":"2017-10-20T00:00:00.000Z","Permit_Exp":"2018-10-20T00:00:00.000Z","Address":"26 MARCY AV","Proposed_S":4,"Existing_S":0,"BBL":3023690027}},
{"type":"Feature","geometry":{"type":"Point","coordinates":[-73.95497878199996,40.71345882300005]},"properties":{"OBJECTID":513,"Job_Type":"NB","Job_Number":321128347,"BIN_Number":3425786,"Enlargemen":"No","Borough_Na":"Brooklyn","Total_Cons":5307,"Enlargem_1":0,"Permit_Iss":"2017-10-20T00:00:00.000Z","Permit_Exp":"2018-10-20T00:00:00.000Z","Address":"24 MARCY AV","Proposed_S":4,"Existing_S":0,"BBL":3023690027}},
{"type":"Feature","geometry":{"type":"Point","coordinates":[-73.94455747799998,40.71364915400005]},"properties":{"OBJECTID":542,"Job_Type":"NB","Job_Number":320590623,"BIN_Number":3413732,"Enlargemen":"No","Borough_Na":"Brooklyn","Total_Cons":14037,"Enlargem_1":0,"Permit_Iss":"2018-01-17T00:00:00.000Z","Permit_Exp":"2019-01-19T00:00:00.000Z","Address":"319 GRAHAM AVENUE","Proposed_S":6,"Existing_S":0,"BBL":3027700024}},
{"type":"Feature","geometry":{"type":"Point","coordinates":[-73.94455747799998,40.71364915400005]},"properties":{"OBJECTID":543,"Job_Type":"NB","Job_Number":320590623,"BIN_Number":3413732,"Enlargemen":"No","Borough_Na":"Brooklyn","Total_Cons":0,"Enlargem_1":0,"Permit_Iss":"2017-11-21T00:00:00.000Z","Permit_Exp":"2018-11-21T00:00:00.000Z","Address":"319 GRAHAM AVENUE","Proposed_S":0,"Existing_S":0,"BBL":3027700024}},
{"type":"Feature","geometry":{"type":"Point","coordinates":[-73.94455747799998,40.71364915400005]},"properties":{"OBJECTID":544,"Job_Type":"NB","Job_Number":320590623,"BIN_Number":3413732,"Enlargemen":"No","Borough_Na":"Brooklyn","Total_Cons":0,"Enlargem_1":0,"Permit_Iss":"2018-03-07T00:00:00.000Z","Permit_Exp":"2019-03-07T00:00:00.000Z","Address":"319 GRAHAM AVENUE","Proposed_S":0,"Existing_S":0,"BBL":3027700024}},
{"type":"Feature","geometry":{"type":"Point","coordinates":[-73.95259074499995,40.713575889000026]},"properties":{"OBJECTID":550,"Job_Type":"NB","Job_Number":320373751,"BIN_Number":3413996,"Enlargemen":"No","Borough_Na":"Brooklyn","Total_Cons":198951,"Enlargem_1":0,"Permit_Iss":"2017-11-08T00:00:00.000Z","Permit_Exp":"2018-11-08T00:00:00.000Z","Address":"500 METROPOLITAN AVE","Proposed_S":14,"Existing_S":0,"BBL":3023710021}},
{"type":"Feature","geometry":{"type":"Point","coordinates":[-73.95316458799994,40.713147941000045]},"properties":{"OBJECTID":551,"Job_Type":"NB","Job_Number":321112540,"BIN_Number":3413996,"Enlargemen":"No","Borough_Na":"Brooklyn","Total_Cons":15757,"Enlargem_1":0,"Permit_Iss":"2017-06-29T00:00:00.000Z","Permit_Exp":"2018-06-29T00:00:00.000Z","Address":"31 AINSLIE ST","Proposed_S":5,"Existing_S":0,"BBL":3023710050}},
{"type":"Feature","geometry":{"type":"Point","coordinates":[-73.95259074499995,40.713575889000026]},"properties":{"OBJECTID":552,"Job_Type":"NB","Job_Number":320373751,"BIN_Number":3413996,"Enlargemen":"No","Borough_Na":"Brooklyn","Total_Cons":0,"Enlargem_1":0,"Permit_Iss":"2017-07-06T00:00:00.000Z","Permit_Exp":"2018-07-06T00:00:00.000Z","Address":"500 METROPOLITAN AVE","Proposed_S":0,"Existing_S":0,"BBL":3023710021}},
{"type":"Feature","geometry":{"type":"Point","coordinates":[-73.95259074499995,40.713575889000026]},"properties":{"OBJECTID":553,"Job_Type":"NB","Job_Number":320373751,"BIN_Number":3413996,"Enlargemen":"No","Borough_Na":"Brooklyn","Total_Cons":198951,"Enlargem_1":0,"Permit_Iss":"2017-11-08T00:00:00.000Z","Permit_Exp":"2018-11-08T00:00:00.000Z","Address":"500 METROPOLITAN AVE","Proposed_S":14,"Existing_S":0,"BBL":3023710021}},
{"type":"Feature","geometry":{"type":"Point","coordinates":[-73.95259074499995,40.713575889000026]},"properties":{"OBJECTID":554,"Job_Type":"NB","Job_Number":320373751,"BIN_Number":3413996,"Enlargemen":"No","Borough_Na":"Brooklyn","Total_Cons":198951,"Enlargem_1":0,"Permit_Iss":"2018-01-16T00:00:00.000Z","Permit_Exp":"2019-01-16T00:00:00.000Z","Address":"500 METROPOLITAN AVE","Proposed_S":14,"Existing_S":0,"BBL":3023710021}},
{"type":"Feature","geometry":{"type":"Point","coordinates":[-73.95316458799994,40.713147941000045]},"properties":{"OBJECTID":555,"Job_Type":"NB","Job_Number":321112540,"BIN_Number":3413996,"Enlargemen":"No","Borough_Na":"Brooklyn","Total_Cons":0,"Enlargem_1":0,"Permit_Iss":"2017-08-18T00:00:00.000Z","Permit_Exp":"2018-08-18T00:00:00.000Z","Address":"31 AINSLIE ST","Proposed_S":0,"Existing_S":0,"BBL":3023710050}},
{"type":"Feature","geometry":{"type":"Point","coordinates":[-73.95316458799994,40.713147941000045]},"properties":{"OBJECTID":556,"Job_Type":"NB","Job_Number":321112540,"BIN_Number":3413996,"Enlargemen":"No","Borough_Na":"Brooklyn","Total_Cons":15757,"Enlargem_1":0,"Permit_Iss":"2017-06-29T00:00:00.000Z","Permit_Exp":"2018-06-29T00:00:00.000Z","Address":"31 AINSLIE ST","Proposed_S":5,"Existing_S":0,"BBL":3023710050}},
{"type":"Feature","geometry":{"type":"Point","coordinates":[-73.96456652699999,40.71372292600006]},"properties":{"OBJECTID":562,"Job_Type":"NB","Job_Number":320909647,"BIN_Number":3425680,"Enlargemen":"No","Borough_Na":"Brooklyn","Total_Cons":135362,"Enlargem_1":0,"Permit_Iss":"2017-06-26T00:00:00.000Z","Permit_Exp":"2018-05-26T00:00:00.000Z","Address":"321 WYTHE AVENUE","Proposed_S":19,"Existing_S":0,"BBL":3024160001}},
{"type":"Feature","geometry":{"type":"Point","coordinates":[-73.96456652699999,40.71372292600006]},"properties":{"OBJECTID":563,"Job_Type":"NB","Job_Number":320909647,"BIN_Number":3425680,"Enlargemen":"No","Borough_Na":"Brooklyn","Total_Cons":0,"Enlargem_1":0,"Permit_Iss":"2017-07-26T00:00:00.000Z","Permit_Exp":"2018-07-26T00:00:00.000Z","Address":"321 WYTHE AVENUE","Proposed_S":0,"Existing_S":0,"BBL":3024160001}},
{"type":"Feature","geometry":{"type":"Point","coordinates":[-73.96456652699999,40.71372292600006]},"properties":{"OBJECTID":564,"Job_Type":"NB","Job_Number":320909647,"BIN_Number":3425680,"Enlargemen":"No","Borough_Na":"Brooklyn","Total_Cons":135362,"Enlargem_1":0,"Permit_Iss":"2017-06-26T00:00:00.000Z","Permit_Exp":"2018-06-26T00:00:00.000Z","Address":"321 WYTHE AVENUE","Proposed_S":19,"Existing_S":0,"BBL":3024160001}},
{"type":"Feature","geometry":{"type":"Point","coordinates":[-73.95687593999997,40.713797155000066]},"properties":{"OBJECTID":571,"Job_Type":"NB","Job_Number":320373662,"BIN_Number":3062495,"Enlargemen":"No","Borough_Na":"Brooklyn","Total_Cons":8831,"Enlargem_1":0,"Permit_Iss":"2017-06-14T00:00:00.000Z","Permit_Exp":"2018-06-13T00:00:00.000Z","Address":"25 HOPE STREET","Proposed_S":4,"Existing_S":0,"BBL":3023680034}},
{"type":"Feature","geometry":{"type":"Point","coordinates":[-73.95687593999997,40.713797155000066]},"properties":{"OBJECTID":572,"Job_Type":"NB","Job_Number":320373662,"BIN_Number":3062495,"Enlargemen":"No","Borough_Na":"Brooklyn","Total_Cons":0,"Enlargem_1":0,"Permit_Iss":"2018-03-22T00:00:00.000Z","Permit_Exp":"2019-03-22T00:00:00.000Z","Address":"25 HOPE STREET","Proposed_S":0,"Existing_S":0,"BBL":3023680034}},
{"type":"Feature","geometry":{"type":"Point","coordinates":[-73.95687593999997,40.713797155000066]},"properties":{"OBJECTID":573,"Job_Type":"NB","Job_Number":320373662,"BIN_Number":3062495,"Enlargemen":"No","Borough_Na":"Brooklyn","Total_Cons":8831,"Enlargem_1":0,"Permit_Iss":"2017-06-14T00:00:00.000Z","Permit_Exp":"2018-06-13T00:00:00.000Z","Address":"25 HOPE STREET","Proposed_S":4,"Existing_S":0,"BBL":3023680034}},
{"type":"Feature","geometry":{"type":"Point","coordinates":[-73.95687593999997,40.713797155000066]},"properties":{"OBJECTID":574,"Job_Type":"NB","Job_Number":320373662,"BIN_Number":3062495,"Enlargemen":"No","Borough_Na":"Brooklyn","Total_Cons":8831,"Enlargem_1":0,"Permit_Iss":"2017-06-14T00:00:00.000Z","Permit_Exp":"2018-06-14T00:00:00.000Z","Address":"25 HOPE STREET","Proposed_S":4,"Existing_S":0,"BBL":3023680034}},
{"type":"Feature","geometry":{"type":"Point","coordinates":[-73.94548549299998,40.71387029300007]},"properties":{"OBJECTID":583,"Job_Type":"NB","Job_Number":321187176,"BIN_Number":3068886,"Enlargemen":"No","Borough_Na":"Brooklyn","Total_Cons":17478,"Enlargem_1":0,"Permit_Iss":"2018-02-14T00:00:00.000Z","Permit_Exp":"2019-02-14T00:00:00.000Z","Address":"131 DEVOE STREET","Proposed_S":5,"Existing_S":0,"BBL":3027640038}},
{"type":"Feature","geometry":{"type":"Point","coordinates":[-73.94548549299998,40.71387029300007]},"properties":{"OBJECTID":584,"Job_Type":"NB","Job_Number":321187176,"BIN_Number":3068886,"Enlargemen":"No","Borough_Na":"Brooklyn","Total_Cons":17478,"Enlargem_1":0,"Permit_Iss":"2018-01-26T00:00:00.000Z","Permit_Exp":"2018-11-15T00:00:00.000Z","Address":"131 DEVOE STREET","Proposed_S":5,"Existing_S":0,"BBL":3027640038}},
{"type":"Feature","geometry":{"type":"Point","coordinates":[-73.96564491299995,40.714044390000026]},"properties":{"OBJECTID":585,"Job_Type":"NB","Job_Number":321189316,"BIN_Number":3425914,"Enlargemen":"No","Borough_Na":"Brooklyn","Total_Cons":119598,"Enlargem_1":0,"Permit_Iss":"2017-06-27T00:00:00.000Z","Permit_Exp":"2018-06-27T00:00:00.000Z","Address":"60 SOUTH 2ND STREET","Proposed_S":5,"Existing_S":0,"BBL":3024150022}},
{"type":"Feature","geometry":{"type":"Point","coordinates":[-73.96564491299995,40.714044390000026]},"properties":{"OBJECTID":586,"Job_Type":"NB","Job_Number":321189316,"BIN_Number":3425914,"Enlargemen":"No","Borough_Na":"Brooklyn","Total_Cons":0,"Enlargem_1":0,"Permit_Iss":"2017-09-07T00:00:00.000Z","Permit_Exp":"2018-09-07T00:00:00.000Z","Address":"60 SOUTH 2ND STREET","Proposed_S":0,"Existing_S":0,"BBL":3024150022}},
{"type":"Feature","geometry":{"type":"Point","coordinates":[-73.96564491299995,40.714044390000026]},"properties":{"OBJECTID":587,"Job_Type":"NB","Job_Number":321189316,"BIN_Number":3425914,"Enlargemen":"No","Borough_Na":"Brooklyn","Total_Cons":119598,"Enlargem_1":0,"Permit_Iss":"2017-06-27T00:00:00.000Z","Permit_Exp":"2018-06-27T00:00:00.000Z","Address":"60 SOUTH 2ND STREET","Proposed_S":5,"Existing_S":0,"BBL":3024150022}},
{"type":"Feature","geometry":{"type":"Point","coordinates":[-73.94729503099995,40.714034706000064]},"properties":{"OBJECTID":592,"Job_Type":"NB","Job_Number":320909503,"BIN_Number":3068837,"Enlargemen":"No","Borough_Na":"Brooklyn","Total_Cons":13409,"Enlargem_1":0,"Permit_Iss":"2018-03-29T00:00:00.000Z","Permit_Exp":"2019-03-30T00:00:00.000Z","Address":"650 METROPOLITAN AVENUE","Proposed_S":6,"Existing_S":0,"BBL":3027630011}},
{"type":"Feature","geometry":{"type":"Point","coordinates":[-73.94729503099995,40.714034706000064]},"properties":{"OBJECTID":593,"Job_Type":"NB","Job_Number":320909503,"BIN_Number":3068837,"Enlargemen":"No","Borough_Na":"Brooklyn","Total_Cons":13409,"Enlargem_1":0,"Permit_Iss":"2018-03-29T00:00:00.000Z","Permit_Exp":"2019-03-29T00:00:00.000Z","Address":"650 METROPOLITAN AVENUE","Proposed_S":6,"Existing_S":0,"BBL":3027630011}},
{"type":"Feature","geometry":{"type":"Point","coordinates":[-73.93783863399995,40.714147138000044]},"properties":{"OBJECTID":594,"Job_Type":"NB","Job_Number":321194596,"BIN_Number":3070368,"Enlargemen":"No","Borough_Na":"Brooklyn","Total_Cons":7070,"Enlargem_1":0,"Permit_Iss":"2018-02-01T00:00:00.000Z","Permit_Exp":"2018-05-09T00:00:00.000Z","Address":"289 DEVOE STREET","Proposed_S":4,"Existing_S":0,"BBL":3029170023}},
{"type":"Feature","geometry":{"type":"Point","coordinates":[-73.93783863399995,40.714147138000044]},"properties":{"OBJECTID":595,"Job_Type":"NB","Job_Number":321194596,"BIN_Number":3070368,"Enlargemen":"No","Borough_Na":"Brooklyn","Total_Cons":7070,"Enlargem_1":0,"Permit_Iss":"2018-02-01T00:00:00.000Z","Permit_Exp":"2018-05-09T00:00:00.000Z","Address":"289 DEVOE STREET","Proposed_S":4,"Existing_S":0,"BBL":3029170023}},
{"type":"Feature","geometry":{"type":"Point","coordinates":[-73.93783863399995,40.714147138000044]},"properties":{"OBJECTID":596,"Job_Type":"NB","Job_Number":321194596,"BIN_Number":3070368,"Enlargemen":"No","Borough_Na":"Brooklyn","Total_Cons":7070,"Enlargem_1":0,"Permit_Iss":"2018-02-01T00:00:00.000Z","Permit_Exp":"2019-02-01T00:00:00.000Z","Address":"289 DEVOE STREET","Proposed_S":4,"Existing_S":0,"BBL":3029170023}},
{"type":"Feature","geometry":{"type":"Point","coordinates":[-73.94357639299994,40.71409232900004]},"properties":{"OBJECTID":599,"Job_Type":"NB","Job_Number":321193436,"BIN_Number":3068910,"Enlargemen":"No","Borough_Na":"Brooklyn","Total_Cons":5593,"Enlargem_1":0,"Permit_Iss":"2018-01-03T00:00:00.000Z","Permit_Exp":"2018-05-09T00:00:00.000Z","Address":"171 DEVOE STREET","Proposed_S":4,"Existing_S":0,"BBL":3027650036}},
{"type":"Feature","geometry":{"type":"Point","coordinates":[-73.94357639299994,40.71409232900004]},"properties":{"OBJECTID":600,"Job_Type":"NB","Job_Number":321193436,"BIN_Number":3068910,"Enlargemen":"No","Borough_Na":"Brooklyn","Total_Cons":5593,"Enlargem_1":0,"Permit_Iss":"2018-01-03T00:00:00.000Z","Permit_Exp":"2018-05-09T00:00:00.000Z","Address":"171 DEVOE STREET","Proposed_S":4,"Existing_S":0,"BBL":3027650036}},
{"type":"Feature","geometry":{"type":"Point","coordinates":[-73.94357639299994,40.71409232900004]},"properties":{"OBJECTID":601,"Job_Type":"NB","Job_Number":321193436,"BIN_Number":3068910,"Enlargemen":"No","Borough_Na":"Brooklyn","Total_Cons":5593,"Enlargem_1":0,"Permit_Iss":"2018-01-03T00:00:00.000Z","Permit_Exp":"2019-01-03T00:00:00.000Z","Address":"171 DEVOE STREET","Proposed_S":4,"Existing_S":0,"BBL":3027650036}},
{"type":"Feature","geometry":{"type":"Point","coordinates":[-73.94036186399995,40.71415209300005]},"properties":{"OBJECTID":604,"Job_Type":"NB","Job_Number":320622493,"BIN_Number":3425534,"Enlargemen":"No","Borough_Na":"Brooklyn","Total_Cons":0,"Enlargem_1":0,"Permit_Iss":"2017-10-17T00:00:00.000Z","Permit_Exp":"2018-10-17T00:00:00.000Z","Address":"237 DEVOE STREET","Proposed_S":0,"Existing_S":0,"BBL":3029160060}},
{"type":"Feature","geometry":{"type":"Point","coordinates":[-73.94281491999999,40.71426186700006]},"properties":{"OBJECTID":631,"Job_Type":"NB","Job_Number":320627345,"BIN_Number":3068901,"Enlargemen":"No","Borough_Na":"Brooklyn","Total_Cons":6907,"Enlargem_1":0,"Permit_Iss":"2017-10-26T00:00:00.000Z","Permit_Exp":"2018-08-15T00:00:00.000Z","Address":"355 HUMBOLDT STREET","Proposed_S":4,"Existing_S":0,"BBL":3027650025}},
{"type":"Feature","geometry":{"type":"Point","coordinates":[-73.94281491999999,40.71426186700006]},"properties":{"OBJECTID":632,"Job_Type":"NB","Job_Number":320627345,"BIN_Number":3068901,"Enlargemen":"No","Borough_Na":"Brooklyn","Total_Cons":6907,"Enlargem_1":0,"Permit_Iss":"2017-10-26T00:00:00.000Z","Permit_Exp":"2018-10-26T00:00:00.000Z","Address":"355 HUMBOLDT STREET","Proposed_S":4,"Existing_S":0,"BBL":3027650025}},
{"type":"Feature","geometry":{"type":"Point","coordinates":[-73.94281491999999,40.71426186700006]},"properties":{"OBJECTID":633,"Job_Type":"NB","Job_Number":320627345,"BIN_Number":3068901,"Enlargemen":"No","Borough_Na":"Brooklyn","Total_Cons":6907,"Enlargem_1":0,"Permit_Iss":"2018-02-22T00:00:00.000Z","Permit_Exp":"2019-02-22T00:00:00.000Z","Address":"355 HUMBOLDT STREET","Proposed_S":4,"Existing_S":0,"BBL":3027650025}},
{"type":"Feature","geometry":{"type":"Point","coordinates":[-73.93930834199995,40.71438759200004]},"properties":{"OBJECTID":667,"Job_Type":"NB","Job_Number":321154763,"BIN_Number":3425539,"Enlargemen":"No","Borough_Na":"Brooklyn","Total_Cons":6373,"Enlargem_1":0,"Permit_Iss":"2017-09-15T00:00:00.000Z","Permit_Exp":"2018-06-12T00:00:00.000Z","Address":"892 METROPOLITAN AVE","Proposed_S":4,"Existing_S":0,"BBL":3029160036}},
{"type":"Feature","geometry":{"type":"Point","coordinates":[-73.93930834199995,40.71438759200004]},"properties":{"OBJECTID":668,"Job_Type":"NB","Job_Number":321154763,"BIN_Number":3425539,"Enlargemen":"No","Borough_Na":"Brooklyn","Total_Cons":6373,"Enlargem_1":0,"Permit_Iss":"2017-06-09T00:00:00.000Z","Permit_Exp":"2018-06-09T00:00:00.000Z","Address":"892 METROPOLITAN AVE","Proposed_S":4,"Existing_S":0,"BBL":3029160036}},
{"type":"Feature","geometry":{"type":"Point","coordinates":[-73.93930834199995,40.71438759200004]},"properties":{"OBJECTID":669,"Job_Type":"NB","Job_Number":321154763,"BIN_Number":3425539,"Enlargemen":"No","Borough_Na":"Brooklyn","Total_Cons":6373,"Enlargem_1":0,"Permit_Iss":"2017-06-19T00:00:00.000Z","Permit_Exp":"2018-06-12T00:00:00.000Z","Address":"892 METROPOLITAN AVE","Proposed_S":4,"Existing_S":0,"BBL":3029160036}},
{"type":"Feature","geometry":{"type":"Point","coordinates":[-73.93930834199995,40.71438759200004]},"properties":{"OBJECTID":671,"Job_Type":"NB","Job_Number":321132886,"BIN_Number":3425538,"Enlargemen":"No","Borough_Na":"Brooklyn","Total_Cons":5040,"Enlargem_1":0,"Permit_Iss":"2017-09-15T00:00:00.000Z","Permit_Exp":"2018-06-12T00:00:00.000Z","Address":"894 METROPOLITAN AVENUE","Proposed_S":4,"Existing_S":0,"BBL":3029160036}},
{"type":"Feature","geometry":{"type":"Point","coordinates":[-73.93930834199995,40.71438759200004]},"properties":{"OBJECTID":672,"Job_Type":"NB","Job_Number":321132886,"BIN_Number":3425538,"Enlargemen":"No","Borough_Na":"Brooklyn","Total_Cons":5040,"Enlargem_1":0,"Permit_Iss":"2017-12-01T00:00:00.000Z","Permit_Exp":"2018-12-01T00:00:00.000Z","Address":"894 METROPOLITAN AVENUE","Proposed_S":4,"Existing_S":0,"BBL":3029160036}},
{"type":"Feature","geometry":{"type":"Point","coordinates":[-73.95420615299997,40.71446584600005]},"properties":{"OBJECTID":684,"Job_Type":"NB","Job_Number":321210603,"BIN_Number":3424134,"Enlargemen":"No","Borough_Na":"Brooklyn","Total_Cons":6772,"Enlargem_1":0,"Permit_Iss":"2017-04-07T00:00:00.000Z","Permit_Exp":"2018-04-07T00:00:00.000Z","Address":"286 NORTH 6 STREET","Proposed_S":3,"Existing_S":0,"BBL":3023390009}},
{"type":"Feature","geometry":{"type":"Point","coordinates":[-73.95420615299997,40.71446584600005]},"properties":{"OBJECTID":685,"Job_Type":"NB","Job_Number":321210603,"BIN_Number":3424134,"Enlargemen":"No","Borough_Na":"Brooklyn","Total_Cons":6772,"Enlargem_1":0,"Permit_Iss":"2017-11-09T00:00:00.000Z","Permit_Exp":"2018-11-09T00:00:00.000Z","Address":"286 NORTH 6 STREET","Proposed_S":3,"Existing_S":0,"BBL":3023390009}},
{"type":"Feature","geometry":{"type":"Point","coordinates":[-73.95014437699996,40.714505330000065]},"properties":{"OBJECTID":688,"Job_Type":"NB","Job_Number":320595085,"BIN_Number":3395159,"Enlargemen":"No","Borough_Na":"Brooklyn","Total_Cons":5022,"Enlargem_1":0,"Permit_Iss":"2017-08-30T00:00:00.000Z","Permit_Exp":"2018-08-30T00:00:00.000Z","Address":"34 CONSELYEA STREET","Proposed_S":4,"Existing_S":0,"BBL":3027560018}},
{"type":"Feature","geometry":{"type":"Point","coordinates":[-73.95014437699996,40.714505330000065]},"properties":{"OBJECTID":689,"Job_Type":"NB","Job_Number":320595085,"BIN_Number":3395159,"Enlargemen":"No","Borough_Na":"Brooklyn","Total_Cons":0,"Enlargem_1":0,"Permit_Iss":"2017-12-14T00:00:00.000Z","Permit_Exp":"2018-12-14T00:00:00.000Z","Address":"34 CONSELYEA STREET","Proposed_S":0,"Existing_S":0,"BBL":3027560018}},
{"type":"Feature","geometry":{"type":"Point","coordinates":[-73.95014437699996,40.714505330000065]},"properties":{"OBJECTID":690,"Job_Type":"NB","Job_Number":320595085,"BIN_Number":3395159,"Enlargemen":"No","Borough_Na":"Brooklyn","Total_Cons":5022,"Enlargem_1":0,"Permit_Iss":"2017-12-07T00:00:00.000Z","Permit_Exp":"2018-12-07T00:00:00.000Z","Address":"34 CONSELYEA STREET","Proposed_S":4,"Existing_S":0,"BBL":3027560018}},
{"type":"Feature","geometry":{"type":"Point","coordinates":[-73.94716496399997,40.71443967300007]},"properties":{"OBJECTID":692,"Job_Type":"NB","Job_Number":321154399,"BIN_Number":3068724,"Enlargemen":"No","Borough_Na":"Brooklyn","Total_Cons":13546,"Enlargem_1":0,"Permit_Iss":"2018-03-30T00:00:00.000Z","Permit_Exp":"2019-03-30T00:00:00.000Z","Address":"653 METROPOLITAN AVE","Proposed_S":6,"Existing_S":0,"BBL":3027580037}},
{"type":"Feature","geometry":{"type":"Point","coordinates":[-73.94716496399997,40.71443967300007]},"properties":{"OBJECTID":693,"Job_Type":"NB","Job_Number":321154399,"BIN_Number":3068724,"Enlargemen":"No","Borough_Na":"Brooklyn","Total_Cons":13546,"Enlargem_1":0,"Permit_Iss":"2017-10-24T00:00:00.000Z","Permit_Exp":"2018-10-24T00:00:00.000Z","Address":"653 METROPOLITAN AVE","Proposed_S":6,"Existing_S":0,"BBL":3027580037}},
{"type":"Feature","geometry":{"type":"Point","coordinates":[-73.94716496399997,40.71443967300007]},"properties":{"OBJECTID":694,"Job_Type":"NB","Job_Number":321154399,"BIN_Number":3068724,"Enlargemen":"No","Borough_Na":"Brooklyn","Total_Cons":13546,"Enlargem_1":0,"Permit_Iss":"2018-03-30T00:00:00.000Z","Permit_Exp":"2019-03-30T00:00:00.000Z","Address":"653 METROPOLITAN AVE","Proposed_S":6,"Existing_S":0,"BBL":3027580037}},
{"type":"Feature","geometry":{"type":"Point","coordinates":[-73.95417726899996,40.71450426100006]},"properties":{"OBJECTID":720,"Job_Type":"NB","Job_Number":321118946,"BIN_Number":3425154,"Enlargemen":"No","Borough_Na":"Brooklyn","Total_Cons":9166,"Enlargem_1":0,"Permit_Iss":"2017-04-07T00:00:00.000Z","Permit_Exp":"2018-04-07T00:00:00.000Z","Address":"282 NORTH 6TH STREET","Proposed_S":3,"Existing_S":0,"BBL":3023390007}},
{"type":"Feature","geometry":{"type":"Point","coordinates":[-73.95417726899996,40.71450426100006]},"properties":{"OBJECTID":721,"Job_Type":"NB","Job_Number":321118946,"BIN_Number":3425154,"Enlargemen":"No","Borough_Na":"Brooklyn","Total_Cons":9166,"Enlargem_1":0,"Permit_Iss":"2017-11-09T00:00:00.000Z","Permit_Exp":"2018-11-09T00:00:00.000Z","Address":"282 NORTH 6TH STREET","Proposed_S":3,"Existing_S":0,"BBL":3023390007}},
{"type":"Feature","geometry":{"type":"Point","coordinates":[-73.95442966299998,40.71466904700003]},"properties":{"OBJECTID":724,"Job_Type":"NB","Job_Number":321019599,"BIN_Number":3424133,"Enlargemen":"No","Borough_Na":"Brooklyn","Total_Cons":1000,"Enlargem_1":0,"Permit_Iss":"2017-04-07T00:00:00.000Z","Permit_Exp":"2018-04-07T00:00:00.000Z","Address":"278 NORTH 6 ST","Proposed_S":3,"Existing_S":0,"BBL":3023390005}},
{"type":"Feature","geometry":{"type":"Point","coordinates":[-73.95442966299998,40.71466904700003]},"properties":{"OBJECTID":725,"Job_Type":"NB","Job_Number":321019599,"BIN_Number":3424133,"Enlargemen":"No","Borough_Na":"Brooklyn","Total_Cons":1000,"Enlargem_1":0,"Permit_Iss":"2017-11-09T00:00:00.000Z","Permit_Exp":"2018-11-09T00:00:00.000Z","Address":"278 NORTH 6 ST","Proposed_S":3,"Existing_S":0,"BBL":3023390005}},
{"type":"Feature","geometry":{"type":"Point","coordinates":[-73.95350963299995,40.71492943100003]},"properties":{"OBJECTID":760,"Job_Type":"NB","Job_Number":320597074,"BIN_Number":3418222,"Enlargemen":"No","Borough_Na":"Brooklyn","Total_Cons":59444,"Enlargem_1":0,"Permit_Iss":"2017-10-30T00:00:00.000Z","Permit_Exp":"2018-09-18T00:00:00.000Z","Address":"308 NORTH 7 STREET","Proposed_S":9,"Existing_S":0,"BBL":3023310009}},
{"type":"Feature","geometry":{"type":"Point","coordinates":[-73.95350963299995,40.71492943100003]},"properties":{"OBJECTID":761,"Job_Type":"NB","Job_Number":320597074,"BIN_Number":3418222,"Enlargemen":"No","Borough_Na":"Brooklyn","Total_Cons":0,"Enlargem_1":0,"Permit_Iss":"2017-06-14T00:00:00.000Z","Permit_Exp":"2018-06-14T00:00:00.000Z","Address":"308 NORTH 7 STREET","Proposed_S":0,"Existing_S":0,"BBL":3023310009}},
{"type":"Feature","geometry":{"type":"Point","coordinates":[-73.95350963299995,40.71492943100003]},"properties":{"OBJECTID":762,"Job_Type":"NB","Job_Number":320597074,"BIN_Number":3418222,"Enlargemen":"No","Borough_Na":"Brooklyn","Total_Cons":59444,"Enlargem_1":0,"Permit_Iss":"2018-02-14T00:00:00.000Z","Permit_Exp":"2019-02-14T00:00:00.000Z","Address":"308 NORTH 7 STREET","Proposed_S":9,"Existing_S":0,"BBL":3023310009}},
{"type":"Feature","geometry":{"type":"Point","coordinates":[-73.95021261699998,40.71490335000004]},"properties":{"OBJECTID":775,"Job_Type":"NB","Job_Number":321278078,"BIN_Number":3425587,"Enlargemen":"No","Borough_Na":"Brooklyn","Total_Cons":4991,"Enlargem_1":0,"Permit_Iss":"2017-11-08T00:00:00.000Z","Permit_Exp":"2018-10-31T00:00:00.000Z","Address":"33 CONSELYEA STREET","Proposed_S":4,"Existing_S":0,"BBL":3027510038}},
{"type":"Feature","geometry":{"type":"Point","coordinates":[-73.95021261699998,40.71490335000004]},"properties":{"OBJECTID":776,"Job_Type":"NB","Job_Number":321278078,"BIN_Number":3425587,"Enlargemen":"No","Borough_Na":"Brooklyn","Total_Cons":0,"Enlargem_1":0,"Permit_Iss":"2017-05-08T00:00:00.000Z","Permit_Exp":"2018-05-08T00:00:00.000Z","Address":"33 CONSELYEA STREET","Proposed_S":0,"Existing_S":0,"BBL":3027510038}},
{"type":"Feature","geometry":{"type":"Point","coordinates":[-73.95021261699998,40.71490335000004]},"properties":{"OBJECTID":777,"Job_Type":"NB","Job_Number":321278078,"BIN_Number":3425587,"Enlargemen":"No","Borough_Na":"Brooklyn","Total_Cons":4991,"Enlargem_1":0,"Permit_Iss":"2017-12-20T00:00:00.000Z","Permit_Exp":"2018-12-20T00:00:00.000Z","Address":"33 CONSELYEA STREET","Proposed_S":4,"Existing_S":0,"BBL":3027510038}},
{"type":"Feature","geometry":{"type":"Point","coordinates":[-73.94274921499994,40.71488341100007]},"properties":{"OBJECTID":778,"Job_Type":"NB","Job_Number":320627390,"BIN_Number":3425791,"Enlargemen":"No","Borough_Na":"Brooklyn","Total_Cons":85502,"Enlargem_1":0,"Permit_Iss":"2017-05-08T00:00:00.000Z","Permit_Exp":"2018-05-08T00:00:00.000Z","Address":"371 HUMBOLDT STREET","Proposed_S":8,"Existing_S":0,"BBL":3027607502}},
{"type":"Feature","geometry":{"type":"Point","coordinates":[-73.94274921499994,40.71488341100007]},"properties":{"OBJECTID":779,"Job_Type":"NB","Job_Number":320627390,"BIN_Number":3425791,"Enlargemen":"No","Borough_Na":"Brooklyn","Total_Cons":0,"Enlargem_1":0,"Permit_Iss":"2018-01-22T00:00:00.000Z","Permit_Exp":"2019-01-22T00:00:00.000Z","Address":"371 HUMBOLDT STREET","Proposed_S":0,"Existing_S":0,"BBL":3027607502}},
{"type":"Feature","geometry":{"type":"Point","coordinates":[-73.94274921499994,40.71488341100007]},"properties":{"OBJECTID":780,"Job_Type":"NB","Job_Number":320627390,"BIN_Number":3425791,"Enlargemen":"No","Borough_Na":"Brooklyn","Total_Cons":85502,"Enlargem_1":0,"Permit_Iss":"2017-05-08T00:00:00.000Z","Permit_Exp":"2018-05-08T00:00:00.000Z","Address":"371 HUMBOLDT STREET","Proposed_S":8,"Existing_S":0,"BBL":3027607502}},
{"type":"Feature","geometry":{"type":"Point","coordinates":[-73.95624522099996,40.71491733600004]},"properties":{"OBJECTID":781,"Job_Type":"NB","Job_Number":320199389,"BIN_Number":3062341,"Enlargemen":"No","Borough_Na":"Brooklyn","Total_Cons":5993,"Enlargem_1":0,"Permit_Iss":"2017-12-01T00:00:00.000Z","Permit_Exp":"2018-12-01T00:00:00.000Z","Address":"218 NORTH 5TH STREET","Proposed_S":4,"Existing_S":0,"BBL":3023460009}},
{"type":"Feature","geometry":{"type":"Point","coordinates":[-73.94115111499997,40.71497867200003]},"properties":{"OBJECTID":784,"Job_Type":"NB","Job_Number":320590543,"BIN_Number":3413686,"Enlargemen":"No","Borough_Na":"Brooklyn","Total_Cons":6382,"Enlargem_1":0,"Permit_Iss":"2017-04-26T00:00:00.000Z","Permit_Exp":"2018-05-02T00:00:00.000Z","Address":"9 ORIENT AVE","Proposed_S":4,"Existing_S":0,"BBL":3029070069}},
{"type":"Feature","geometry":{"type":"Point","coordinates":[-73.94115111499997,40.71497867200003]},"properties":{"OBJECTID":785,"Job_Type":"NB","Job_Number":320590543,"BIN_Number":3413686,"Enlargemen":"No","Borough_Na":"Brooklyn","Total_Cons":0,"Enlargem_1":0,"Permit_Iss":"2017-09-13T00:00:00.000Z","Permit_Exp":"2018-09-13T00:00:00.000Z","Address":"9 ORIENT AVE","Proposed_S":0,"Existing_S":0,"BBL":3029070069}},
{"type":"Feature","geometry":{"type":"Point","coordinates":[-73.94106813099995,40.71499784300005]},"properties":{"OBJECTID":786,"Job_Type":"NB","Job_Number":320590552,"BIN_Number":3413687,"Enlargemen":"No","Borough_Na":"Brooklyn","Total_Cons":6382,"Enlargem_1":0,"Permit_Iss":"2017-04-26T00:00:00.000Z","Permit_Exp":"2018-05-02T00:00:00.000Z","Address":"11 ORIENT AVE","Proposed_S":4,"Existing_S":0,"BBL":3029070068}},
{"type":"Feature","geometry":{"type":"Point","coordinates":[-73.94106813099995,40.71499784300005]},"properties":{"OBJECTID":787,"Job_Type":"NB","Job_Number":320590552,"BIN_Number":3413687,"Enlargemen":"No","Borough_Na":"Brooklyn","Total_Cons":0,"Enlargem_1":0,"Permit_Iss":"2017-09-13T00:00:00.000Z","Permit_Exp":"2018-09-13T00:00:00.000Z","Address":"11 ORIENT AVE","Proposed_S":0,"Existing_S":0,"BBL":3029070068}},
{"type":"Feature","geometry":{"type":"Point","coordinates":[-73.94259468599995,40.71502154800004]},"properties":{"OBJECTID":801,"Job_Type":"NB","Job_Number":320914089,"BIN_Number":3070197,"Enlargemen":"No","Borough_Na":"Brooklyn","Total_Cons":12321,"Enlargem_1":0,"Permit_Iss":"2017-07-27T00:00:00.000Z","Permit_Exp":"2018-06-05T00:00:00.000Z","Address":"1 MASPETH AVENUE","Proposed_S":2,"Existing_S":0,"BBL":3028920001}},
{"type":"Feature","geometry":{"type":"Point","coordinates":[-73.94259468599995,40.71502154800004]},"properties":{"OBJECTID":802,"Job_Type":"NB","Job_Number":320914089,"BIN_Number":3070197,"Enlargemen":"No","Borough_Na":"Brooklyn","Total_Cons":0,"Enlargem_1":0,"Permit_Iss":"2017-11-15T00:00:00.000Z","Permit_Exp":"2018-11-15T00:00:00.000Z","Address":"1 MASPETH AVENUE","Proposed_S":0,"Existing_S":0,"BBL":3028920001}},
{"type":"Feature","geometry":{"type":"Point","coordinates":[-73.94259468599995,40.71502154800004]},"properties":{"OBJECTID":803,"Job_Type":"NB","Job_Number":320914089,"BIN_Number":3070197,"Enlargemen":"No","Borough_Na":"Brooklyn","Total_Cons":12321,"Enlargem_1":0,"Permit_Iss":"2017-07-26T00:00:00.000Z","Permit_Exp":"2018-07-26T00:00:00.000Z","Address":"1 MASPETH AVENUE","Proposed_S":2,"Existing_S":0,"BBL":3028920001}},
{"type":"Feature","geometry":{"type":"Point","coordinates":[-73.94135653599994,40.715198358000066]},"properties":{"OBJECTID":804,"Job_Type":"NB","Job_Number":321230020,"BIN_Number":3425717,"Enlargemen":"No","Borough_Na":"Brooklyn","Total_Cons":7700,"Enlargem_1":0,"Permit_Iss":"2017-12-18T00:00:00.000Z","Permit_Exp":"2018-08-02T00:00:00.000Z","Address":"34 MASPETH AVENUE","Proposed_S":5,"Existing_S":0,"BBL":3029070009}},
{"type":"Feature","geometry":{"type":"Point","coordinates":[-73.94135653599994,40.715198358000066]},"properties":{"OBJECTID":805,"Job_Type":"NB","Job_Number":321230020,"BIN_Number":3425717,"Enlargemen":"No","Borough_Na":"Brooklyn","Total_Cons":7700,"Enlargem_1":0,"Permit_Iss":"2017-05-04T00:00:00.000Z","Permit_Exp":"2018-05-04T00:00:00.000Z","Address":"34 MASPETH AVENUE","Proposed_S":5,"Existing_S":0,"BBL":3029070009}},
{"type":"Feature","geometry":{"type":"Point","coordinates":[-73.94135653599994,40.715198358000066]},"properties":{"OBJECTID":806,"Job_Type":"NB","Job_Number":321230020,"BIN_Number":3425717,"Enlargemen":"No","Borough_Na":"Brooklyn","Total_Cons":7700,"Enlargem_1":0,"Permit_Iss":"2017-12-18T00:00:00.000Z","Permit_Exp":"2018-08-02T00:00:00.000Z","Address":"34 MASPETH AVENUE","Proposed_S":5,"Existing_S":0,"BBL":3029070009}},
{"type":"Feature","geometry":{"type":"Point","coordinates":[-73.94135653599994,40.715198358000066]},"properties":{"OBJECTID":807,"Job_Type":"NB","Job_Number":321230020,"BIN_Number":3425717,"Enlargemen":"No","Borough_Na":"Brooklyn","Total_Cons":7700,"Enlargem_1":0,"Permit_Iss":"2017-12-18T00:00:00.000Z","Permit_Exp":"2018-12-18T00:00:00.000Z","Address":"34 MASPETH AVENUE","Proposed_S":5,"Existing_S":0,"BBL":3029070009}},
{"type":"Feature","geometry":{"type":"Point","coordinates":[-73.95846160399998,40.71533412100007]},"properties":{"OBJECTID":818,"Job_Type":"NB","Job_Number":320593871,"BIN_Number":3424287,"Enlargemen":"No","Borough_Na":"Brooklyn","Total_Cons":110580,"Enlargem_1":0,"Permit_Iss":"2018-03-16T00:00:00.000Z","Permit_Exp":"2019-03-17T00:00:00.000Z","Address":"247 METROPOLITAN AVENUE","Proposed_S":5,"Existing_S":0,"BBL":3023520020}},
{"type":"Feature","geometry":{"type":"Point","coordinates":[-73.95846160399998,40.71533412100007]},"properties":{"OBJECTID":819,"Job_Type":"NB","Job_Number":320593871,"BIN_Number":3424287,"Enlargemen":"No","Borough_Na":"Brooklyn","Total_Cons":0,"Enlargem_1":0,"Permit_Iss":"2017-04-27T00:00:00.000Z","Permit_Exp":"2018-04-27T00:00:00.000Z","Address":"247 METROPOLITAN AVENUE","Proposed_S":0,"Existing_S":0,"BBL":3023520020}},
{"type":"Feature","geometry":{"type":"Point","coordinates":[-73.95846160399998,40.71533412100007]},"properties":{"OBJECTID":820,"Job_Type":"NB","Job_Number":320593871,"BIN_Number":3424287,"Enlargemen":"No","Borough_Na":"Brooklyn","Total_Cons":110580,"Enlargem_1":0,"Permit_Iss":"2017-05-05T00:00:00.000Z","Permit_Exp":"2018-05-05T00:00:00.000Z","Address":"247 METROPOLITAN AVENUE","Proposed_S":5,"Existing_S":0,"BBL":3023520020}},
{"type":"Feature","geometry":{"type":"Point","coordinates":[-73.94079919499995,40.715452302000074]},"properties":{"OBJECTID":842,"Job_Type":"NB","Job_Number":321186774,"BIN_Number":3070230,"Enlargemen":"No","Borough_Na":"Brooklyn","Total_Cons":8287,"Enlargem_1":0,"Permit_Iss":"2018-03-05T00:00:00.000Z","Permit_Exp":"2018-12-28T00:00:00.000Z","Address":"52 MASPETH AVENUE","Proposed_S":5,"Existing_S":0,"BBL":3029070017}},
{"type":"Feature","geometry":{"type":"Point","coordinates":[-73.94079919499995,40.715452302000074]},"properties":{"OBJECTID":843,"Job_Type":"NB","Job_Number":321186774,"BIN_Number":3070230,"Enlargemen":"No","Borough_Na":"Brooklyn","Total_Cons":8287,"Enlargem_1":0,"Permit_Iss":"2018-03-05T00:00:00.000Z","Permit_Exp":"2018-12-28T00:00:00.000Z","Address":"52 MASPETH AVENUE","Proposed_S":5,"Existing_S":0,"BBL":3029070017}},
{"type":"Feature","geometry":{"type":"Point","coordinates":[-73.94079919499995,40.715452302000074]},"properties":{"OBJECTID":844,"Job_Type":"NB","Job_Number":321186774,"BIN_Number":3070230,"Enlargemen":"No","Borough_Na":"Brooklyn","Total_Cons":8287,"Enlargem_1":0,"Permit_Iss":"2018-03-05T00:00:00.000Z","Permit_Exp":"2019-03-05T00:00:00.000Z","Address":"52 MASPETH AVENUE","Proposed_S":5,"Existing_S":0,"BBL":3029070017}},
{"type":"Feature","geometry":{"type":"Point","coordinates":[-73.96183484199997,40.71553634000003]},"properties":{"OBJECTID":847,"Job_Type":"NB","Job_Number":320713322,"BIN_Number":3399187,"Enlargemen":"No","Borough_Na":"Brooklyn","Total_Cons":5523,"Enlargem_1":0,"Permit_Iss":"2017-08-23T00:00:00.000Z","Permit_Exp":"2018-07-13T00:00:00.000Z","Address":"121 NORTH 1ST STREET","Proposed_S":4,"Existing_S":0,"BBL":3023650036}},
{"type":"Feature","geometry":{"type":"Point","coordinates":[-73.96183484199997,40.71553634000003]},"properties":{"OBJECTID":848,"Job_Type":"NB","Job_Number":320713322,"BIN_Number":3399187,"Enlargemen":"No","Borough_Na":"Brooklyn","Total_Cons":5523,"Enlargem_1":0,"Permit_Iss":"2017-08-23T00:00:00.000Z","Permit_Exp":"2018-08-23T00:00:00.000Z","Address":"121 NORTH 1ST STREET","Proposed_S":4,"Existing_S":0,"BBL":3023650036}},
{"type":"Feature","geometry":{"type":"Point","coordinates":[-73.96183484199997,40.71553634000003]},"properties":{"OBJECTID":849,"Job_Type":"NB","Job_Number":320713322,"BIN_Number":3399187,"Enlargemen":"No","Borough_Na":"Brooklyn","Total_Cons":5523,"Enlargem_1":0,"Permit_Iss":"2017-11-14T00:00:00.000Z","Permit_Exp":"2018-11-14T00:00:00.000Z","Address":"121 NORTH 1ST STREET","Proposed_S":4,"Existing_S":0,"BBL":3023650036}},
{"type":"Feature","geometry":{"type":"Point","coordinates":[-73.96400989999995,40.715795048000075]},"properties":{"OBJECTID":887,"Job_Type":"NB","Job_Number":320914873,"BIN_Number":3256340,"Enlargemen":"No","Borough_Na":"Brooklyn","Total_Cons":4032,"Enlargem_1":0,"Permit_Iss":"2017-09-28T00:00:00.000Z","Permit_Exp":"2018-08-12T00:00:00.000Z","Address":"83 GRAND ST","Proposed_S":4,"Existing_S":0,"BBL":3023790044}},
{"type":"Feature","geometry":{"type":"Point","coordinates":[-73.96400989999995,40.715795048000075]},"properties":{"OBJECTID":888,"Job_Type":"NB","Job_Number":320914873,"BIN_Number":3256340,"Enlargemen":"No","Borough_Na":"Brooklyn","Total_Cons":4032,"Enlargem_1":0,"Permit_Iss":"2017-09-28T00:00:00.000Z","Permit_Exp":"2018-08-12T00:00:00.000Z","Address":"83 GRAND ST","Proposed_S":4,"Existing_S":0,"BBL":3023790044}},
{"type":"Feature","geometry":{"type":"Point","coordinates":[-73.96400989999995,40.715795048000075]},"properties":{"OBJECTID":889,"Job_Type":"NB","Job_Number":320914873,"BIN_Number":3256340,"Enlargemen":"No","Borough_Na":"Brooklyn","Total_Cons":4032,"Enlargem_1":0,"Permit_Iss":"2017-09-28T00:00:00.000Z","Permit_Exp":"2018-09-28T00:00:00.000Z","Address":"83 GRAND ST","Proposed_S":4,"Existing_S":0,"BBL":3023790044}},
{"type":"Feature","geometry":{"type":"Point","coordinates":[-73.96400989999995,40.715795048000075]},"properties":{"OBJECTID":890,"Job_Type":"NB","Job_Number":320914873,"BIN_Number":3256340,"Enlargemen":"No","Borough_Na":"Brooklyn","Total_Cons":4032,"Enlargem_1":0,"Permit_Iss":"2018-01-17T00:00:00.000Z","Permit_Exp":"2019-01-17T00:00:00.000Z","Address":"83 GRAND ST","Proposed_S":4,"Existing_S":0,"BBL":3023790044}},
{"type":"Feature","geometry":{"type":"Point","coordinates":[-73.94377651199994,40.715797923000025]},"properties":{"OBJECTID":893,"Job_Type":"NB","Job_Number":320593719,"BIN_Number":3068627,"Enlargemen":"No","Borough_Na":"Brooklyn","Total_Cons":6704,"Enlargem_1":0,"Permit_Iss":"2017-12-07T00:00:00.000Z","Permit_Exp":"2018-12-07T00:00:00.000Z","Address":"178 SKILLMAN AVE","Proposed_S":4,"Existing_S":0,"BBL":3027550016}},
{"type":"Feature","geometry":{"type":"Point","coordinates":[-73.98185883099995,40.71588158700007]},"properties":{"OBJECTID":895,"Job_Type":"NB","Job_Number":122760985,"BIN_Number":1089858,"Enlargemen":"No","Borough_Na":"Manhattan","Total_Cons":758,"Enlargem_1":0,"Permit_Iss":"2017-05-26T00:00:00.000Z","Permit_Exp":"2018-04-26T00:00:00.000Z","Address":"257 DELANCEY STREET","Proposed_S":1,"Existing_S":0,"BBL":1003310095}},
{"type":"Feature","geometry":{"type":"Point","coordinates":[-73.98185883099995,40.71588158700007]},"properties":{"OBJECTID":896,"Job_Type":"NB","Job_Number":122760985,"BIN_Number":1089858,"Enlargemen":"No","Borough_Na":"Manhattan","Total_Cons":0,"Enlargem_1":0,"Permit_Iss":"2017-08-02T00:00:00.000Z","Permit_Exp":"2018-08-02T00:00:00.000Z","Address":"257 DELANCEY STREET","Proposed_S":0,"Existing_S":0,"BBL":1003310095}},
{"type":"Feature","geometry":{"type":"Point","coordinates":[-73.98185883099995,40.71588158700007]},"properties":{"OBJECTID":897,"Job_Type":"NB","Job_Number":122760985,"BIN_Number":1089858,"Enlargemen":"No","Borough_Na":"Manhattan","Total_Cons":758,"Enlargem_1":0,"Permit_Iss":"2017-05-26T00:00:00.000Z","Permit_Exp":"2018-04-26T00:00:00.000Z","Address":"257 DELANCEY STREET","Proposed_S":1,"Existing_S":0,"BBL":1003310095}},
{"type":"Feature","geometry":{"type":"Point","coordinates":[-73.96507745599996,40.716190622000056]},"properties":{"OBJECTID":912,"Job_Type":"NB","Job_Number":320914631,"BIN_Number":3425645,"Enlargemen":"No","Borough_Na":"Brooklyn","Total_Cons":8007,"Enlargem_1":0,"Permit_Iss":"2018-02-27T00:00:00.000Z","Permit_Exp":"2019-02-27T00:00:00.000Z","Address":"53 GRAND STREET","Proposed_S":5,"Existing_S":0,"BBL":3023780035}},
{"type":"Feature","geometry":{"type":"Point","coordinates":[-73.96507745599996,40.716190622000056]},"properties":{"OBJECTID":913,"Job_Type":"NB","Job_Number":320914631,"BIN_Number":3425645,"Enlargemen":"No","Borough_Na":"Brooklyn","Total_Cons":8007,"Enlargem_1":0,"Permit_Iss":"2018-02-27T00:00:00.000Z","Permit_Exp":"2019-02-27T00:00:00.000Z","Address":"53 GRAND STREET","Proposed_S":5,"Existing_S":0,"BBL":3023780035}},
{"type":"Feature","geometry":{"type":"Point","coordinates":[-73.96213842799995,40.716260703000046]},"properties":{"OBJECTID":915,"Job_Type":"NB","Job_Number":321290232,"BIN_Number":3062404,"Enlargemen":"No","Borough_Na":"Brooklyn","Total_Cons":6275,"Enlargem_1":0,"Permit_Iss":"2018-01-16T00:00:00.000Z","Permit_Exp":"2018-12-04T00:00:00.000Z","Address":"141 METROPOLITAN AVENUE","Proposed_S":4,"Existing_S":0,"BBL":3023580024}},
{"type":"Feature","geometry":{"type":"Point","coordinates":[-73.96213842799995,40.716260703000046]},"properties":{"OBJECTID":916,"Job_Type":"NB","Job_Number":321290232,"BIN_Number":3062404,"Enlargemen":"No","Borough_Na":"Brooklyn","Total_Cons":6275,"Enlargem_1":0,"Permit_Iss":"2017-10-24T00:00:00.000Z","Permit_Exp":"2018-10-24T00:00:00.000Z","Address":"141 METROPOLITAN AVENUE","Proposed_S":4,"Existing_S":0,"BBL":3023580024}},
{"type":"Feature","geometry":{"type":"Point","coordinates":[-73.96213842799995,40.716260703000046]},"properties":{"OBJECTID":917,"Job_Type":"NB","Job_Number":321290232,"BIN_Number":3062404,"Enlargemen":"No","Borough_Na":"Brooklyn","Total_Cons":6275,"Enlargem_1":0,"Permit_Iss":"2018-01-16T00:00:00.000Z","Permit_Exp":"2018-12-04T00:00:00.000Z","Address":"141 METROPOLITAN AVENUE","Proposed_S":4,"Existing_S":0,"BBL":3023580024}},
{"type":"Feature","geometry":{"type":"Point","coordinates":[-73.95818362599994,40.716550633000054]},"properties":{"OBJECTID":919,"Job_Type":"NB","Job_Number":320831196,"BIN_Number":3408189,"Enlargemen":"No","Borough_Na":"Brooklyn","Total_Cons":7135,"Enlargem_1":0,"Permit_Iss":"2017-12-12T00:00:00.000Z","Permit_Exp":"2018-08-03T00:00:00.000Z","Address":"161 NORTH 5TH STREET","Proposed_S":4,"Existing_S":0,"BBL":3023360038}},
{"type":"Feature","geometry":{"type":"Point","coordinates":[-73.95818362599994,40.716550633000054]},"properties":{"OBJECTID":920,"Job_Type":"NB","Job_Number":320831196,"BIN_Number":3408189,"Enlargemen":"No","Borough_Na":"Brooklyn","Total_Cons":7135,"Enlargem_1":0,"Permit_Iss":"2017-08-08T00:00:00.000Z","Permit_Exp":"2018-08-08T00:00:00.000Z","Address":"161 NORTH 5TH STREET","Proposed_S":4,"Existing_S":0,"BBL":3023360038}},
{"type":"Feature","geometry":{"type":"Point","coordinates":[-73.96211909799996,40.716804513000056]},"properties":{"OBJECTID":922,"Job_Type":"NB","Job_Number":320626765,"BIN_Number":3425618,"Enlargemen":"No","Borough_Na":"Brooklyn","Total_Cons":106259,"Enlargem_1":0,"Permit_Iss":"2017-10-16T00:00:00.000Z","Permit_Exp":"2018-10-16T00:00:00.000Z","Address":"94 N 3 STREET","Proposed_S":7,"Existing_S":0,"BBL":3023580029}},
{"type":"Feature","geometry":{"type":"Point","coordinates":[-73.96211909799996,40.716804513000056]},"properties":{"OBJECTID":923,"Job_Type":"NB","Job_Number":320626765,"BIN_Number":3425618,"Enlargemen":"No","Borough_Na":"Brooklyn","Total_Cons":0,"Enlargem_1":0,"Permit_Iss":"2018-01-24T00:00:00.000Z","Permit_Exp":"2019-01-24T00:00:00.000Z","Address":"94 N 3 STREET","Proposed_S":0,"Existing_S":0,"BBL":3023580029}},
{"type":"Feature","geometry":{"type":"Point","coordinates":[-73.96211909799996,40.716804513000056]},"properties":{"OBJECTID":924,"Job_Type":"NB","Job_Number":320626765,"BIN_Number":3425618,"Enlargemen":"No","Borough_Na":"Brooklyn","Total_Cons":106259,"Enlargem_1":0,"Permit_Iss":"2017-05-15T00:00:00.000Z","Permit_Exp":"2018-05-15T00:00:00.000Z","Address":"94 N 3 STREET","Proposed_S":7,"Existing_S":0,"BBL":3023580029}},
{"type":"Feature","geometry":{"type":"Point","coordinates":[-73.96211909799996,40.716804513000056]},"properties":{"OBJECTID":925,"Job_Type":"NB","Job_Number":320626765,"BIN_Number":3425618,"Enlargemen":"No","Borough_Na":"Brooklyn","Total_Cons":106259,"Enlargem_1":0,"Permit_Iss":"2017-10-16T00:00:00.000Z","Permit_Exp":"2018-10-16T00:00:00.000Z","Address":"94 N 3 STREET","Proposed_S":7,"Existing_S":0,"BBL":3023580029}},
{"type":"Feature","geometry":{"type":"Point","coordinates":[-73.98575447699994,40.717054147000056]},"properties":{"OBJECTID":942,"Job_Type":"NB","Job_Number":121187036,"BIN_Number":1089451,"Enlargemen":"No","Borough_Na":"Manhattan","Total_Cons":177950,"Enlargem_1":0,"Permit_Iss":"2017-06-21T00:00:00.000Z","Permit_Exp":"2018-06-21T00:00:00.000Z","Address":"175 DELANCEY STREET","Proposed_S":14,"Existing_S":0,"BBL":1003477501}},
{"type":"Feature","geometry":{"type":"Point","coordinates":[-73.98645425099994,40.71733145300004]},