{"type":"FeatureCollection", "features": [
{"type":"Feature","geometry":{"type":"Point","coordinates":[-73.9987182602391,40.722160339963395]},"properties":{"OBJECTID_1":725,"OBJECTID":725,"Applicatio":"2018-01-02T00:00:00.000Z","Job_Number":120319413,"Job_Type":"A1","Enlargemen":"","Lat":40.72216034,"Long":-73.99871826,"BIN_Number":1007239,"Address":"54 CROSBY STREET","Borough":1,"Type":"A1","Borough_Na":"MANHATTAN"}},
{"type":"Feature","geometry":{"type":"Point","coordinates":[-73.99149322954777,40.720401759988086]},"properties":{"OBJECTID_1":726,"OBJECTID":726,"Applicatio":"2018-01-02T00:00:00.000Z","Job_Number":121102868,"Job_Type":"A1","Enlargemen":"","Lat":40.72040176,"Long":-73.99149323,"BIN_Number":1087323,"Address":"150 FORSYTH STREET","Borough":1,"Type":"A1","Borough_Na":"MANHATTAN"}},
{"type":"Feature","geometry":{"type":"Point","coordinates":[-73.98486328039779,40.72608184964841]},"properties":{"OBJECTID_1":732,"OBJECTID":732,"Applicatio":"2018-01-02T00:00:00.000Z","Job_Number":121390663,"Job_Type":"A1","Enlargemen":"","Lat":40.72608185,"Long":-73.98486328,"BIN_Number":1005804,"Address":"427 EAST 6TH STREET","Borough":1,"Type":"A1","Borough_Na":"MANHATTAN"}},
{"type":"Feature","geometry":{"type":"Point","coordinates":[-73.96320342970895,40.70965957978172]},"properties":{"OBJECTID_1":822,"OBJECTID":822,"Applicatio":"2018-01-02T00:00:00.000Z","Job_Number":321231323,"Job_Type":"A1","Enlargemen":"No","Lat":40.70965958,"Long":-73.96320343,"BIN_Number":3345142,"Address":"139 SOUTH 8 STREET","Borough":3,"Type":"A1","Borough_Na":"BROOKLYN"}},
{"type":"Feature","geometry":{"type":"Point","coordinates":[-73.99478912040391,40.720390319948656]},"properties":{"OBJECTID_1":887,"OBJECTID":887,"Applicatio":"2018-01-03T00:00:00.000Z","Job_Number":121185190,"Job_Type":"A1","Enlargemen":"","Lat":40.72039032,"Long":-73.99478912,"BIN_Number":1090480,"Address":"154 ELIZABETH STREET","Borough":1,"Type":"A1","Borough_Na":"MANHATTAN"}},
{"type":"Feature","geometry":{"type":"Point","coordinates":[-73.99868773961026,40.73749160966326]},"properties":{"OBJECTID_1":993,"OBJECTID":993,"Applicatio":"2018-01-03T00:00:00.000Z","Job_Number":123226491,"Job_Type":"A1","Enlargemen":"No","Lat":40.73749161,"Long":-73.99868774,"BIN_Number":1067540,"Address":"137 WEST 13TH STREET","Borough":1,"Type":"A1","Borough_Na":"MANHATTAN"}},
{"type":"Feature","geometry":{"type":"Point","coordinates":[-73.99868773961026,40.73749160966326]},"properties":{"OBJECTID_1":1194,"OBJECTID":1194,"Applicatio":"2018-01-04T00:00:00.000Z","Job_Number":123226491,"Job_Type":"A1","Enlargemen":"No","Lat":40.73749161,"Long":-73.99868774,"BIN_Number":1067540,"Address":"137 WEST 13TH STREET","Borough":1,"Type":"A1","Borough_Na":"MANHATTAN"}},
{"type":"Feature","geometry":{"type":"Point","coordinates":[-73.99520110997206,40.72288895011353]},"properties":{"OBJECTID_1":1305,"OBJECTID":1305,"Applicatio":"2018-01-05T00:00:00.000Z","Job_Number":121333690,"Job_Type":"A1","Enlargemen":"","Lat":40.72288895,"Long":-73.99520111,"BIN_Number":1007495,"Address":"32 PRINCE STREET","Borough":1,"Type":"A1","Borough_Na":"MANHATTAN"}},
{"type":"Feature","geometry":{"type":"Point","coordinates":[-73.98655701023355,40.71931076043776]},"properties":{"OBJECTID_1":1553,"OBJECTID":1553,"Applicatio":"2018-01-08T00:00:00.000Z","Job_Number":110041730,"Job_Type":"A1","Enlargemen":"","Lat":40.71931076,"Long":-73.98655701,"BIN_Number":1004303,"Address":"135 RIVINGTON STREET","Borough":1,"Type":"A1","Borough_Na":"MANHATTAN"}},
{"type":"Feature","geometry":{"type":"Point","coordinates":[-73.96276854960439,40.7160797099244]},"properties":{"OBJECTID_1":1942,"OBJECTID":1942,"Applicatio":"2018-01-09T00:00:00.000Z","Job_Number":300840507,"Job_Type":"A1","Enlargemen":"","Lat":40.71607971,"Long":-73.96276855,"BIN_Number":3062435,"Address":"132 METROPOLITAN AVENUE","Borough":3,"Type":"A1","Borough_Na":"BROOKLYN"}},
{"type":"Feature","geometry":{"type":"Point","coordinates":[-73.96063994981672,40.71743011025652]},"properties":{"OBJECTID_1":1987,"OBJECTID":1987,"Applicatio":"2018-01-09T00:00:00.000Z","Job_Number":321670544,"Job_Type":"A1","Enlargemen":"No","Lat":40.71743011,"Long":-73.96063995,"BIN_Number":3062296,"Address":"160 BERRY STREET","Borough":3,"Type":"A1","Borough_Na":"BROOKLYN"}},
{"type":"Feature","geometry":{"type":"Point","coordinates":[-73.99478912040391,40.720390319948656]},"properties":{"OBJECTID_1":2058,"OBJECTID":2058,"Applicatio":"2018-01-10T00:00:00.000Z","Job_Number":121185190,"Job_Type":"A1","Enlargemen":"","Lat":40.72039032,"Long":-73.99478912,"BIN_Number":1090480,"Address":"154 ELIZABETH STREET","Borough":1,"Type":"A1","Borough_Na":"MANHATTAN"}},
{"type":"Feature","geometry":{"type":"Point","coordinates":[-73.98317719026461,40.731918329915274]},"properties":{"OBJECTID_1":2066,"OBJECTID":2066,"Applicatio":"2018-01-10T00:00:00.000Z","Job_Number":121797519,"Job_Type":"A1","Enlargemen":"","Lat":40.73191833,"Long":-73.98317719,"BIN_Number":1020402,"Address":"333 EAST 14TH STREET","Borough":1,"Type":"A1","Borough_Na":"MANHATTAN"}},
{"type":"Feature","geometry":{"type":"Point","coordinates":[-73.9962387099128,40.72135162001736]},"properties":{"OBJECTID_1":2072,"OBJECTID":2072,"Applicatio":"2018-01-10T00:00:00.000Z","Job_Number":122548984,"Job_Type":"A1","Enlargemen":"","Lat":40.72135162,"Long":-73.99623871,"BIN_Number":1007179,"Address":"75 KENMARE STREET","Borough":1,"Type":"A1","Borough_Na":"MANHATTAN"}},
{"type":"Feature","geometry":{"type":"Point","coordinates":[-73.9575729403474,40.70853043017449]},"properties":{"OBJECTID_1":2315,"OBJECTID":2315,"Applicatio":"2018-01-10T00:00:00.000Z","Job_Number":321699042,"Job_Type":"A1","Enlargemen":"No","Lat":40.70853043,"Long":-73.95757294,"BIN_Number":3063588,"Address":"301 BROADWAY","Borough":3,"Type":"A1","Borough_Na":"BROOKLYN"}},
{"type":"Feature","geometry":{"type":"Point","coordinates":[-73.98651886018506,40.73270035041836]},"properties":{"OBJECTID_1":3076,"OBJECTID":3076,"Applicatio":"2018-01-16T00:00:00.000Z","Job_Number":122681106,"Job_Type":"A1","Enlargemen":"","Lat":40.73270035,"Long":-73.98651886,"BIN_Number":1006898,"Address":"218 EAST 14 STREET","Borough":1,"Type":"A1","Borough_Na":"MANHATTAN"}},
{"type":"Feature","geometry":{"type":"Point","coordinates":[-73.99352263942237,40.71957015965449]},"properties":{"OBJECTID_1":3139,"OBJECTID":3139,"Applicatio":"2018-01-16T00:00:00.000Z","Job_Number":123196424,"Job_Type":"A1","Enlargemen":"No","Lat":40.71957016,"Long":-73.99352264,"BIN_Number":1005667,"Address":"133 CHRYSTIE STREET","Borough":1,"Type":"A1","Borough_Na":"MANHATTAN"}},
{"type":"Feature","geometry":{"type":"Point","coordinates":[-73.98842621048047,40.7225494401323]},"properties":{"OBJECTID_1":3414,"OBJECTID":3414,"Applicatio":"2018-01-17T00:00:00.000Z","Job_Number":121544374,"Job_Type":"A1","Enlargemen":"","Lat":40.72254944,"Long":-73.98842621,"BIN_Number":1077625,"Address":"177 EAST HOUSTON STREET","Borough":1,"Type":"A1","Borough_Na":"MANHATTAN"}},
{"type":"Feature","geometry":{"type":"Point","coordinates":[-73.99060821986903,40.72525023992726]},"properties":{"OBJECTID_1":3423,"OBJECTID":3423,"Applicatio":"2018-01-17T00:00:00.000Z","Job_Number":122133093,"Job_Type":"A1","Enlargemen":"","Lat":40.72525024,"Long":-73.99060822,"BIN_Number":1006554,"Address":"30 EAST 2ND STREET","Borough":1,"Type":"A1","Borough_Na":"MANHATTAN"}},
{"type":"Feature","geometry":{"type":"Point","coordinates":[-73.9962387099128,40.72135162001736]},"properties":{"OBJECTID_1":3427,"OBJECTID":3427,"Applicatio":"2018-01-17T00:00:00.000Z","Job_Number":122548984,"Job_Type":"A1","Enlargemen":"","Lat":40.72135162,"Long":-73.99623871,"BIN_Number":1007179,"Address":"75 KENMARE STREET","Borough":1,"Type":"A1","Borough_Na":"MANHATTAN"}},
{"type":"Feature","geometry":{"type":"Point","coordinates":[-73.99474334999913,40.726230619687776]},"properties":{"OBJECTID_1":3434,"OBJECTID":3434,"Applicatio":"2018-01-17T00:00:00.000Z","Job_Number":122809443,"Job_Type":"A1","Enlargemen":"","Lat":40.72623062,"Long":-73.99474335,"BIN_Number":1008453,"Address":"59 BLEECKER STREET","Borough":1,"Type":"A1","Borough_Na":"MANHATTAN"}},
{"type":"Feature","geometry":{"type":"Point","coordinates":[-74.00579833982316,40.74177933030036]},"properties":{"OBJECTID_1":3521,"OBJECTID":3521,"Applicatio":"2018-01-17T00:00:00.000Z","Job_Number":123198958,"Job_Type":"A1","Enlargemen":"No","Lat":40.74177933,"Long":-74.00579834,"BIN_Number":1012538,"Address":"408 WEST 15 STREET","Borough":1,"Type":"A1","Borough_Na":"MANHATTAN"}},
{"type":"Feature","geometry":{"type":"Point","coordinates":[-74.00756073019787,40.73960113989702]},"properties":{"OBJECTID_1":3754,"OBJECTID":3754,"Applicatio":"2018-01-18T00:00:00.000Z","Job_Number":122144811,"Job_Type":"A1","Enlargemen":"","Lat":40.73960114,"Long":-74.00756073,"BIN_Number":1012198,"Address":"69 GANSEVOORT STREET","Borough":1,"Type":"A1","Borough_Na":"MANHATTAN"}},
{"type":"Feature","geometry":{"type":"Point","coordinates":[-73.96421814044987,40.71358109019451]},"properties":{"OBJECTID_1":3968,"OBJECTID":3968,"Applicatio":"2018-01-18T00:00:00.000Z","Job_Number":321195381,"Job_Type":"A1","Enlargemen":"","Lat":40.71358109,"Long":-73.96421814,"BIN_Number":3063067,"Address":"288 BERRY STREET","Borough":3,"Type":"A1","Borough_Na":"BROOKLYN"}},
{"type":"Feature","geometry":{"type":"Point","coordinates":[-74.00425720038125,40.736991880106665]},"properties":{"OBJECTID_1":4096,"OBJECTID":4096,"Applicatio":"2018-01-19T00:00:00.000Z","Job_Number":104921373,"Job_Type":"A1","Enlargemen":"","Lat":40.73699188,"Long":-74.0042572,"BIN_Number":1076888,"Address":"61 BANK STREET","Borough":1,"Type":"A1","Borough_Na":"MANHATTAN"}},
{"type":"Feature","geometry":{"type":"Point","coordinates":[-73.9944229103701,40.72510146984484]},"properties":{"OBJECTID_1":4102,"OBJECTID":4102,"Applicatio":"2018-01-19T00:00:00.000Z","Job_Number":121203679,"Job_Type":"A1","Enlargemen":"","Lat":40.72510147,"Long":-73.99442291,"BIN_Number":1008180,"Address":"298 MULBERRY STREET","Borough":1,"Type":"A1","Borough_Na":"MANHATTAN"}},
{"type":"Feature","geometry":{"type":"Point","coordinates":[-73.9875869795525,40.72751999013783]},"properties":{"OBJECTID_1":4120,"OBJECTID":4120,"Applicatio":"2018-01-19T00:00:00.000Z","Job_Number":122627032,"Job_Type":"A1","Enlargemen":"","Lat":40.72751999,"Long":-73.98758698,"BIN_Number":1006267,"Address":"52 EAST 7TH. STREET","Borough":1,"Type":"A1","Borough_Na":"MANHATTAN"}},
{"type":"Feature","geometry":{"type":"Point","coordinates":[-73.94085693041164,40.70880890021412]},"properties":{"OBJECTID_1":4312,"OBJECTID":4312,"Applicatio":"2018-01-19T00:00:00.000Z","Job_Number":321288575,"Job_Type":"A1","Enlargemen":"","Lat":40.7088089,"Long":-73.94085693,"BIN_Number":3338406,"Address":"202 SCHOLES ST","Borough":3,"Type":"A1","Borough_Na":"BROOKLYN"}},
{"type":"Feature","geometry":{"type":"Point","coordinates":[-74.00360869995673,40.73728942996728]},"properties":{"OBJECTID_1":4424,"OBJECTID":4424,"Applicatio":"2018-01-22T00:00:00.000Z","Job_Number":121185010,"Job_Type":"A1","Enlargemen":"","Lat":40.73728943,"Long":-74.0036087,"BIN_Number":1010999,"Address":"313 WEST 4TH STREET","Borough":1,"Type":"A1","Borough_Na":"MANHATTAN"}},
{"type":"Feature","geometry":{"type":"Point","coordinates":[-73.99302672978308,40.724941249914075]},"properties":{"OBJECTID_1":4555,"OBJECTID":4555,"Applicatio":"2018-01-22T00:00:00.000Z","Job_Number":123199886,"Job_Type":"A1","Enlargemen":"No","Lat":40.72494125,"Long":-73.99302673,"BIN_Number":1008195,"Address":"298 ELIZABETH STREET","Borough":1,"Type":"A1","Borough_Na":"MANHATTAN"}},
{"type":"Feature","geometry":{"type":"Point","coordinates":[-73.95832061960593,40.71075058015161]},"properties":{"OBJECTID_1":4640,"OBJECTID":4640,"Applicatio":"2018-01-22T00:00:00.000Z","Job_Number":320909139,"Job_Type":"A1","Enlargemen":"","Lat":40.71075058,"Long":-73.95832062,"BIN_Number":3063305,"Address":"240 SOUTH 3RD STREET","Borough":3,"Type":"A1","Borough_Na":"BROOKLYN"}},
{"type":"Feature","geometry":{"type":"Point","coordinates":[-73.9363632205858,40.710460659927605]},"properties":{"OBJECTID_1":4699,"OBJECTID":4699,"Applicatio":"2018-01-22T00:00:00.000Z","Job_Number":321647740,"Job_Type":"A1","Enlargemen":"","Lat":40.71046066,"Long":-73.93636322,"BIN_Number":3070847,"Address":"22 MEADOW ST","Borough":3,"Type":"A1","Borough_Na":"BROOKLYN"}},
{"type":"Feature","geometry":{"type":"Point","coordinates":[-73.9560928300255,40.70838928011791]},"properties":{"OBJECTID_1":4733,"OBJECTID":4733,"Applicatio":"2018-01-22T00:00:00.000Z","Job_Number":321723792,"Job_Type":"A1","Enlargemen":"No","Lat":40.70838928,"Long":-73.95609283,"BIN_Number":3335976,"Address":"324 SOUTH 5 STREET","Borough":3,"Type":"A1","Borough_Na":"BROOKLYN"}},
{"type":"Feature","geometry":{"type":"Point","coordinates":[-73.98580169971274,40.71915817023035]},"properties":{"OBJECTID_1":4795,"OBJECTID":4795,"Applicatio":"2018-01-23T00:00:00.000Z","Job_Number":122571234,"Job_Type":"A1","Enlargemen":"","Lat":40.71915817,"Long":-73.9858017,"BIN_Number":1004171,"Address":"149 RIVINGTON ST","Borough":1,"Type":"A1","Borough_Na":"MANHATTAN"}},
{"type":"Feature","geometry":{"type":"Point","coordinates":[-73.96746062988328,40.71149062981823]},"properties":{"OBJECTID_1":4969,"OBJECTID":4969,"Applicatio":"2018-01-23T00:00:00.000Z","Job_Number":320036769,"Job_Type":"A1","Enlargemen":"","Lat":40.71149063,"Long":-73.96746063,"BIN_Number":3063638,"Address":"21 DUNHAM PLACE","Borough":3,"Type":"A1","Borough_Na":"BROOKLYN"}},
{"type":"Feature","geometry":{"type":"Point","coordinates":[-73.9601364099102,40.71229171993566]},"properties":{"OBJECTID_1":5001,"OBJECTID":5001,"Applicatio":"2018-01-23T00:00:00.000Z","Job_Number":321554901,"Job_Type":"A1","Enlargemen":"","Lat":40.71229172,"Long":-73.96013641,"BIN_Number":3063133,"Address":"194 SOUTH 2ND STREET","Borough":3,"Type":"A1","Borough_Na":"BROOKLYN"}},
{"type":"Feature","geometry":{"type":"Point","coordinates":[-73.97902679037328,40.73677826038263]},"properties":{"OBJECTID_1":5095,"OBJECTID":5095,"Applicatio":"2018-01-24T00:00:00.000Z","Job_Number":122233109,"Job_Type":"A1","Enlargemen":"","Lat":40.73677826,"Long":-73.97902679,"BIN_Number":1086124,"Address":"385 FIRST AVENUE","Borough":1,"Type":"A1","Borough_Na":"MANHATTAN"}},
{"type":"Feature","geometry":{"type":"Point","coordinates":[-73.96389770971963,40.71078872969262]},"properties":{"OBJECTID_1":5319,"OBJECTID":5319,"Applicatio":"2018-01-24T00:00:00.000Z","Job_Number":321239101,"Job_Type":"A1","Enlargemen":"","Lat":40.71078873,"Long":-73.96389771,"BIN_Number":3063545,"Address":"394 BEDFORD AVE","Borough":3,"Type":"A1","Borough_Na":"BROOKLYN"}},
{"type":"Feature","geometry":{"type":"Point","coordinates":[-73.94085693041164,40.70880890021412]},"properties":{"OBJECTID_1":5324,"OBJECTID":5324,"Applicatio":"2018-01-24T00:00:00.000Z","Job_Number":321288557,"Job_Type":"A1","Enlargemen":"","Lat":40.7088089,"Long":-73.94085693,"BIN_Number":3338405,"Address":"202 REAR SCHOLES ST","Borough":3,"Type":"A1","Borough_Na":"BROOKLYN"}},
{"type":"Feature","geometry":{"type":"Point","coordinates":[-73.94093323034878,40.713741300022775]},"properties":{"OBJECTID_1":5337,"OBJECTID":5337,"Applicatio":"2018-01-24T00:00:00.000Z","Job_Number":321581891,"Job_Type":"A1","Enlargemen":"","Lat":40.7137413,"Long":-73.94093323,"BIN_Number":3070398,"Address":"244 DEVOE STREET","Borough":3,"Type":"A1","Borough_Na":"BROOKLYN"}},
{"type":"Feature","geometry":{"type":"Point","coordinates":[-74.00605773947734,40.74254989967636]},"properties":{"OBJECTID_1":5461,"OBJECTID":5461,"Applicatio":"2018-01-25T00:00:00.000Z","Job_Number":121613469,"Job_Type":"A1","Enlargemen":"","Lat":40.7425499,"Long":-74.00605774,"BIN_Number":1012541,"Address":"75 NINTH AVENUE","Borough":1,"Type":"A1","Borough_Na":"MANHATTAN"}},
{"type":"Feature","geometry":{"type":"Point","coordinates":[-73.99060821986903,40.72525023992726]},"properties":{"OBJECTID_1":5466,"OBJECTID":5466,"Applicatio":"2018-01-25T00:00:00.000Z","Job_Number":122133093,"Job_Type":"A1","Enlargemen":"","Lat":40.72525024,"Long":-73.99060822,"BIN_Number":1006554,"Address":"30 EAST 2ND STREET","Borough":1,"Type":"A1","Borough_Na":"MANHATTAN"}},
{"type":"Feature","geometry":{"type":"Point","coordinates":[-73.98818970056115,40.72957993022949]},"properties":{"OBJECTID_1":5470,"OBJECTID":5470,"Applicatio":"2018-01-25T00:00:00.000Z","Job_Number":122382830,"Job_Type":"A1","Enlargemen":"","Lat":40.72957993,"Long":-73.9881897,"BIN_Number":1089795,"Address":"236 EAST 9 STREET","Borough":1,"Type":"A1","Borough_Na":"MANHATTAN"}},
{"type":"Feature","geometry":{"type":"Point","coordinates":[-73.96032715003274,40.71823883023352]},"properties":{"OBJECTID_1":5700,"OBJECTID":5700,"Applicatio":"2018-01-25T00:00:00.000Z","Job_Number":321191358,"Job_Type":"A1","Enlargemen":"No","Lat":40.71823883,"Long":-73.96032715,"BIN_Number":3062167,"Address":"108 NORTH 6 STREET","Borough":3,"Type":"A1","Borough_Na":"BROOKLYN"}},
{"type":"Feature","geometry":{"type":"Point","coordinates":[-73.94287871981011,40.71149826020409]},"properties":{"OBJECTID_1":5761,"OBJECTID":5761,"Applicatio":"2018-01-25T00:00:00.000Z","Job_Number":321682728,"Job_Type":"A1","Enlargemen":"No","Lat":40.71149826,"Long":-73.94287872,"BIN_Number":3069611,"Address":"754 GRAND STREET","Borough":3,"Type":"A1","Borough_Na":"BROOKLYN"}},
{"type":"Feature","geometry":{"type":"Point","coordinates":[-73.99147796959966,40.72602081013416]},"properties":{"OBJECTID_1":5931,"OBJECTID":5931,"Applicatio":"2018-01-26T00:00:00.000Z","Job_Number":123150080,"Job_Type":"A1","Enlargemen":"No","Lat":40.72602081,"Long":-73.99147797,"BIN_Number":1006545,"Address":"4 EAST 3RD STREET","Borough":1,"Type":"A1","Borough_Na":"MANHATTAN"}},
{"type":"Feature","geometry":{"type":"Point","coordinates":[-73.99040221982769,40.72634124995189]},"properties":{"OBJECTID_1":5992,"OBJECTID":5992,"Applicatio":"2018-01-26T00:00:00.000Z","Job_Number":123210177,"Job_Type":"A1","Enlargemen":"No","Lat":40.72634125,"Long":-73.99040222,"BIN_Number":1077966,"Address":"70 EAST 4TH STREET","Borough":1,"Type":"A1","Borough_Na":"MANHATTAN"}},
{"type":"Feature","geometry":{"type":"Point","coordinates":[-73.9575729403474,40.70853043017449]},"properties":{"OBJECTID_1":6106,"OBJECTID":6106,"Applicatio":"2018-01-26T00:00:00.000Z","Job_Number":321699042,"Job_Type":"A1","Enlargemen":"No","Lat":40.70853043,"Long":-73.95757294,"BIN_Number":3063588,"Address":"301 BROADWAY","Borough":3,"Type":"A1","Borough_Na":"BROOKLYN"}},
{"type":"Feature","geometry":{"type":"Point","coordinates":[-73.97789764045586,40.73171996962901]},"properties":{"OBJECTID_1":6186,"OBJECTID":6186,"Applicatio":"2018-01-29T00:00:00.000Z","Job_Number":110007992,"Job_Type":"A1","Enlargemen":"","Lat":40.73171997,"Long":-73.97789764,"BIN_Number":1082862,"Address":"532 EAST 20 STREET","Borough":1,"Type":"A1","Borough_Na":"MANHATTAN"}},
{"type":"Feature","geometry":{"type":"Point","coordinates":[-74.00498199053304,40.73860931022999]},"properties":{"OBJECTID_1":6200,"OBJECTID":6200,"Applicatio":"2018-01-29T00:00:00.000Z","Job_Number":121193225,"Job_Type":"A1","Enlargemen":"","Lat":40.73860931,"Long":-74.00498199,"BIN_Number":1011654,"Address":"44 HORATIO STREET","Borough":1,"Type":"A1","Borough_Na":"MANHATTAN"}},
{"type":"Feature","geometry":{"type":"Point","coordinates":[-74.00505828949328,40.738609309605586]},"properties":{"OBJECTID_1":6201,"OBJECTID":6201,"Applicatio":"2018-01-29T00:00:00.000Z","Job_Number":121193270,"Job_Type":"A1","Enlargemen":"","Lat":40.73860931,"Long":-74.00505829,"BIN_Number":1011653,"Address":"46 HORATIO STREET","Borough":1,"Type":"A1","Borough_Na":"MANHATTAN"}},
{"type":"Feature","geometry":{"type":"Point","coordinates":[-73.99852753058022,40.73572921965702]},"properties":{"OBJECTID_1":6501,"OBJECTID":6501,"Applicatio":"2018-01-30T00:00:00.000Z","Job_Number":102812912,"Job_Type":"A1","Enlargemen":"","Lat":40.73572922,"Long":-73.99852753,"BIN_Number":1010583,"Address":"105 WEST 11 STREET","Borough":1,"Type":"A1","Borough_Na":"MANHATTAN"}},
{"type":"Feature","geometry":{"type":"Point","coordinates":[-73.99768065996489,40.72277831993946]},"properties":{"OBJECTID_1":6537,"OBJECTID":6537,"Applicatio":"2018-01-30T00:00:00.000Z","Job_Number":122767755,"Job_Type":"A1","Enlargemen":"","Lat":40.72277832,"Long":-73.99768066,"BIN_Number":1007556,"Address":"75 SPRING STREET","Borough":1,"Type":"A1","Borough_Na":"MANHATTAN"}},
{"type":"Feature","geometry":{"type":"Point","coordinates":[-73.94483947956525,40.71538924970186]},"properties":{"OBJECTID_1":7090,"OBJECTID":7090,"Applicatio":"2018-01-31T00:00:00.000Z","Job_Number":320612422,"Job_Type":"A1","Enlargemen":"","Lat":40.71538925,"Long":-73.94483948,"BIN_Number":3068607,"Address":"361 GRAHAM AVENUE","Borough":3,"Type":"A1","Borough_Na":"BROOKLYN"}},
{"type":"Feature","geometry":{"type":"Point","coordinates":[-73.958526609429,40.716201780228204]},"properties":{"OBJECTID_1":7096,"OBJECTID":7096,"Applicatio":"2018-01-31T00:00:00.000Z","Job_Number":320916595,"Job_Type":"A1","Enlargemen":"","Lat":40.71620178,"Long":-73.95852661,"BIN_Number":3062327,"Address":"152 NORTH 5TH STREET","Borough":3,"Type":"A1","Borough_Na":"BROOKLYN"}},
{"type":"Feature","geometry":{"type":"Point","coordinates":[-73.95265960966525,40.71504974011997]},"properties":{"OBJECTID_1":7158,"OBJECTID":7158,"Applicatio":"2018-01-31T00:00:00.000Z","Job_Number":321665872,"Job_Type":"A1","Enlargemen":"","Lat":40.71504974,"Long":-73.95265961,"BIN_Number":3425159,"Address":"297 NORTH 7 STREET","Borough":3,"Type":"A1","Borough_Na":"BROOKLYN"}},
{"type":"Feature","geometry":{"type":"Point","coordinates":[-73.99852753058022,40.73572921965702]},"properties":{"OBJECTID_1":7234,"OBJECTID":7234,"Applicatio":"2018-02-01T00:00:00.000Z","Job_Number":102812912,"Job_Type":"A1","Enlargemen":"","Lat":40.73572922,"Long":-73.99852753,"BIN_Number":1010583,"Address":"105 WEST 11 STREET","Borough":1,"Type":"A1","Borough_Na":"MANHATTAN"}},
{"type":"Feature","geometry":{"type":"Point","coordinates":[-73.94194030999677,40.71382904029906]},"properties":{"OBJECTID_1":7465,"OBJECTID":7465,"Applicatio":"2018-02-01T00:00:00.000Z","Job_Number":320910163,"Job_Type":"A1","Enlargemen":"No","Lat":40.71382904,"Long":-73.94194031,"BIN_Number":3069113,"Address":"30 BUSHWICK AVENUE","Borough":3,"Type":"A1","Borough_Na":"BROOKLYN"}},
{"type":"Feature","geometry":{"type":"Point","coordinates":[-73.99852753058022,40.73572921965702]},"properties":{"OBJECTID_1":7559,"OBJECTID":7559,"Applicatio":"2018-02-02T00:00:00.000Z","Job_Number":102812912,"Job_Type":"A1","Enlargemen":"","Lat":40.73572922,"Long":-73.99852753,"BIN_Number":1010583,"Address":"105 WEST 11 STREET","Borough":1,"Type":"A1","Borough_Na":"MANHATTAN"}},
{"type":"Feature","geometry":{"type":"Point","coordinates":[-73.94287871981011,40.71149826020409]},"properties":{"OBJECTID_1":7808,"OBJECTID":7808,"Applicatio":"2018-02-02T00:00:00.000Z","Job_Number":321682728,"Job_Type":"A1","Enlargemen":"No","Lat":40.71149826,"Long":-73.94287872,"BIN_Number":3069611,"Address":"754 GRAND STREET","Borough":3,"Type":"A1","Borough_Na":"BROOKLYN"}},
{"type":"Feature","geometry":{"type":"Point","coordinates":[-73.9869232202999,40.71873093010397]},"properties":{"OBJECTID_1":7921,"OBJECTID":7921,"Applicatio":"2018-02-05T00:00:00.000Z","Job_Number":123151052,"Job_Type":"A1","Enlargemen":"No","Lat":40.71873093,"Long":-73.98692322,"BIN_Number":1004299,"Address":"102 NORFOLK STREET","Borough":1,"Type":"A1","Borough_Na":"MANHATTAN"}},
{"type":"Feature","geometry":{"type":"Point","coordinates":[-73.99852753058022,40.73572921965702]},"properties":{"OBJECTID_1":8138,"OBJECTID":8138,"Applicatio":"2018-02-06T00:00:00.000Z","Job_Number":102812912,"Job_Type":"A1","Enlargemen":"","Lat":40.73572922,"Long":-73.99852753,"BIN_Number":1010583,"Address":"105 WEST 11 STREET","Borough":1,"Type":"A1","Borough_Na":"MANHATTAN"}},
{"type":"Feature","geometry":{"type":"Point","coordinates":[-73.99835967970279,40.734851839994356]},"properties":{"OBJECTID_1":8523,"OBJECTID":8523,"Applicatio":"2018-02-07T00:00:00.000Z","Job_Number":122430556,"Job_Type":"A1","Enlargemen":"","Lat":40.73485184,"Long":-73.99835968,"BIN_Number":1009506,"Address":"444 6TH AVENUE","Borough":1,"Type":"A1","Borough_Na":"MANHATTAN"}},
{"type":"Feature","geometry":{"type":"Point","coordinates":[-73.99476624028047,40.73337172985629]},"properties":{"OBJECTID_1":8535,"OBJECTID":8535,"Applicatio":"2018-02-07T00:00:00.000Z","Job_Number":122911242,"Job_Type":"A1","Enlargemen":"","Lat":40.73337173,"Long":-73.99476624,"BIN_Number":1009271,"Address":"3 EAST 10TH STREET","Borough":1,"Type":"A1","Borough_Na":"MANHATTAN"}},
{"type":"Feature","geometry":{"type":"Point","coordinates":[-73.94194030999677,40.71382904029906]},"properties":{"OBJECTID_1":8732,"OBJECTID":8732,"Applicatio":"2018-02-07T00:00:00.000Z","Job_Number":320910163,"Job_Type":"A1","Enlargemen":"No","Lat":40.71382904,"Long":-73.94194031,"BIN_Number":3069113,"Address":"30 BUSHWICK AVENUE","Borough":3,"Type":"A1","Borough_Na":"BROOKLYN"}},
{"type":"Feature","geometry":{"type":"Point","coordinates":[-73.96169281045364,40.71342850011663]},"properties":{"OBJECTID_1":8745,"OBJECTID":8745,"Applicatio":"2018-02-07T00:00:00.000Z","Job_Number":321102748,"Job_Type":"A1","Enlargemen":"","Lat":40.7134285,"Long":-73.96169281,"BIN_Number":3062958,"Address":"305 BEDFORD AVE","Borough":3,"Type":"A1","Borough_Na":"BROOKLYN"}},
{"type":"Feature","geometry":{"type":"Point","coordinates":[-73.99149322954777,40.720401759988086]},"properties":{"OBJECTID_1":8850,"OBJECTID":8850,"Applicatio":"2018-02-08T00:00:00.000Z","Job_Number":121102868,"Job_Type":"A1","Enlargemen":"","Lat":40.72040176,"Long":-73.99149323,"BIN_Number":1087323,"Address":"150 FORSYTH STREET","Borough":1,"Type":"A1","Borough_Na":"MANHATTAN"}},
{"type":"Feature","geometry":{"type":"Point","coordinates":[-73.95832061960593,40.71075058015161]},"properties":{"OBJECTID_1":9064,"OBJECTID":9064,"Applicatio":"2018-02-08T00:00:00.000Z","Job_Number":320909139,"Job_Type":"A1","Enlargemen":"","Lat":40.71075058,"Long":-73.95832062,"BIN_Number":3063305,"Address":"240 SOUTH 3RD STREET","Borough":3,"Type":"A1","Borough_Na":"BROOKLYN"}},
{"type":"Feature","geometry":{"type":"Point","coordinates":[-73.99035645022121,40.71731948987056]},"properties":{"OBJECTID_1":9327,"OBJECTID":9327,"Applicatio":"2018-02-09T00:00:00.000Z","Job_Number":123359579,"Job_Type":"A1","Enlargemen":"No","Lat":40.71731949,"Long":-73.99035645,"BIN_Number":1088619,"Address":"324 GRAND STREET","Borough":1,"Type":"A1","Borough_Na":"MANHATTAN"}},
{"type":"Feature","geometry":{"type":"Point","coordinates":[-73.9912033097657,40.720668789744636]},"properties":{"OBJECTID_1":9340,"OBJECTID":9340,"Applicatio":"2018-02-09T00:00:00.000Z","Job_Number":123362226,"Job_Type":"A1","Enlargemen":"No","Lat":40.72066879,"Long":-73.99120331,"BIN_Number":1005601,"Address":"45 RIVINGTON STREET","Borough":1,"Type":"A1","Borough_Na":"MANHATTAN"}},
{"type":"Feature","geometry":{"type":"Point","coordinates":[-73.94085693041164,40.70880890021412]},"properties":{"OBJECTID_1":9402,"OBJECTID":9402,"Applicatio":"2018-02-09T00:00:00.000Z","Job_Number":321288575,"Job_Type":"A1","Enlargemen":"","Lat":40.7088089,"Long":-73.94085693,"BIN_Number":3338406,"Address":"202 SCHOLES ST","Borough":3,"Type":"A1","Borough_Na":"BROOKLYN"}},
{"type":"Feature","geometry":{"type":"Point","coordinates":[-73.9949569703462,40.71952057010299]},"properties":{"OBJECTID_1":9515,"OBJECTID":9515,"Applicatio":"2018-02-12T00:00:00.000Z","Job_Number":120567822,"Job_Type":"A1","Enlargemen":"","Lat":40.71952057,"Long":-73.99495697,"BIN_Number":1006944,"Address":"341 BROOME STREET","Borough":1,"Type":"A1","Borough_Na":"MANHATTAN"}},
{"type":"Feature","geometry":{"type":"Point","coordinates":[-73.99649810964534,40.738529209681005]},"properties":{"OBJECTID_1":9516,"OBJECTID":9516,"Applicatio":"2018-02-12T00:00:00.000Z","Job_Number":120635465,"Job_Type":"A1","Enlargemen":"","Lat":40.73852921,"Long":-73.99649811,"BIN_Number":1014560,"Address":"555 6TH AVE","Borough":1,"Type":"A1","Borough_Na":"MANHATTAN"}},
{"type":"Feature","geometry":{"type":"Point","coordinates":[-73.97789764045586,40.73171996962901]},"properties":{"OBJECTID_1":9524,"OBJECTID":9524,"Applicatio":"2018-02-12T00:00:00.000Z","Job_Number":121203857,"Job_Type":"A1","Enlargemen":"","Lat":40.73171997,"Long":-73.97789764,"BIN_Number":1082771,"Address":"629 EAST 14TH STREET","Borough":1,"Type":"A1","Borough_Na":"MANHATTAN"}},
{"type":"Feature","geometry":{"type":"Point","coordinates":[-73.98840332004805,40.7309799202301]},"properties":{"OBJECTID_1":9554,"OBJECTID":9554,"Applicatio":"2018-02-12T00:00:00.000Z","Job_Number":122977430,"Job_Type":"A1","Enlargemen":"","Lat":40.73097992,"Long":-73.98840332,"BIN_Number":1006807,"Address":"55 THIRD AVE","Borough":1,"Type":"A1","Borough_Na":"MANHATTAN"}},
{"type":"Feature","geometry":{"type":"Point","coordinates":[-73.94085693041164,40.70880890021412]},"properties":{"OBJECTID_1":9714,"OBJECTID":9714,"Applicatio":"2018-02-12T00:00:00.000Z","Job_Number":321288557,"Job_Type":"A1","Enlargemen":"","Lat":40.7088089,"Long":-73.94085693,"BIN_Number":3338405,"Address":"202 REAR SCHOLES ST","Borough":3,"Type":"A1","Borough_Na":"BROOKLYN"}},
{"type":"Feature","geometry":{"type":"Point","coordinates":[-73.99060821986903,40.72525023992726]},"properties":{"OBJECTID_1":9864,"OBJECTID":9864,"Applicatio":"2018-02-13T00:00:00.000Z","Job_Number":122133093,"Job_Type":"A1","Enlargemen":"","Lat":40.72525024,"Long":-73.99060822,"BIN_Number":1006554,"Address":"30 EAST 2ND STREET","Borough":1,"Type":"A1","Borough_Na":"MANHATTAN"}},
{"type":"Feature","geometry":{"type":"Point","coordinates":[-73.98876953026597,40.7216796900435]},"properties":{"OBJECTID_1":9904,"OBJECTID":9904,"Applicatio":"2018-02-13T00:00:00.000Z","Job_Number":123132895,"Job_Type":"A1","Enlargemen":"No","Lat":40.72167969,"Long":-73.98876953,"BIN_Number":1079079,"Address":"82 STANTON STREET","Borough":1,"Type":"A1","Borough_Na":"MANHATTAN"}},
{"type":"Feature","geometry":{"type":"Point","coordinates":[-73.9898681604593,40.719348910048005]},"properties":{"OBJECTID_1":10167,"OBJECTID":10167,"Applicatio":"2018-02-14T00:00:00.000Z","Job_Number":104933299,"Job_Type":"A1","Enlargemen":"","Lat":40.71934891,"Long":-73.98986816,"BIN_Number":1005508,"Address":"80 DELANCY STREET","Borough":1,"Type":"A1","Borough_Na":"MANHATTAN"}},
{"type":"Feature","geometry":{"type":"Point","coordinates":[-74.00319671948203,40.741359710064394]},"properties":{"OBJECTID_1":10192,"OBJECTID":10192,"Applicatio":"2018-02-14T00:00:00.000Z","Job_Number":122485596,"Job_Type":"A1","Enlargemen":"","Lat":40.74135971,"Long":-74.00319672,"BIN_Number":1013043,"Address":"111 EIGHTH AVENUE","Borough":1,"Type":"A1","Borough_Na":"MANHATTAN"}},
{"type":"Feature","geometry":{"type":"Point","coordinates":[-73.94979858021443,40.713848109708174]},"properties":{"OBJECTID_1":11123,"OBJECTID":11123,"Applicatio":"2018-02-16T00:00:00.000Z","Job_Number":321236211,"Job_Type":"A1","Enlargemen":"","Lat":40.71384811,"Long":-73.94979858,"BIN_Number":3322908,"Address":"574 METROPOLITAN AVE","Borough":3,"Type":"A1","Borough_Na":"BROOKLYN"}},
{"type":"Feature","geometry":{"type":"Point","coordinates":[-73.95791626055012,40.70959853988933]},"properties":{"OBJECTID_1":11131,"OBJECTID":11131,"Applicatio":"2018-02-16T00:00:00.000Z","Job_Number":321389467,"Job_Type":"A1","Enlargemen":"","Lat":40.70959854,"Long":-73.95791626,"BIN_Number":3424858,"Address":"209 HAVEMEYER STREET","Borough":3,"Type":"A1","Borough_Na":"BROOKLYN"}},
{"type":"Feature","geometry":{"type":"Point","coordinates":[-73.98314666940847,40.732238770414696]},"properties":{"OBJECTID_1":11255,"OBJECTID":11255,"Applicatio":"2018-02-20T00:00:00.000Z","Job_Number":122233519,"Job_Type":"A1","Enlargemen":"","Lat":40.73223877,"Long":-73.98314667,"BIN_Number":1020410,"Address":"336 EAST 15TH STREET","Borough":1,"Type":"A1","Borough_Na":"MANHATTAN"}},
{"type":"Feature","geometry":{"type":"Point","coordinates":[-73.9882888802894,40.72072982967469]},"properties":{"OBJECTID_1":11365,"OBJECTID":11365,"Applicatio":"2018-02-20T00:00:00.000Z","Job_Number":123357811,"Job_Type":"A1","Enlargemen":"No","Lat":40.72072983,"Long":-73.98828888,"BIN_Number":1088645,"Address":"145 LUDLOW STREET","Borough":1,"Type":"A1","Borough_Na":"MANHATTAN"}},
{"type":"Feature","geometry":{"type":"Point","coordinates":[-73.99652863019688,40.734901429947485]},"properties":{"OBJECTID_1":11585,"OBJECTID":11585,"Applicatio":"2018-02-21T00:00:00.000Z","Job_Number":121960887,"Job_Type":"A1","Enlargemen":"","Lat":40.73490143,"Long":-73.99652863,"BIN_Number":1009593,"Address":"41 WEST 11TH STREET","Borough":1,"Type":"A1","Borough_Na":"MANHATTAN"}},
{"type":"Feature","geometry":{"type":"Point","coordinates":[-74.00660705995142,40.74211884001969]},"properties":{"OBJECTID_1":11610,"OBJECTID":11610,"Applicatio":"2018-02-21T00:00:00.000Z","Job_Number":122953410,"Job_Type":"A1","Enlargemen":"","Lat":40.74211884,"Long":-74.00660706,"BIN_Number":1012540,"Address":"436 WEST 15 ST","Borough":1,"Type":"A1","Borough_Na":"MANHATTAN"}},
{"type":"Feature","geometry":{"type":"Point","coordinates":[-73.98940277032506,40.72286986966349]},"properties":{"OBJECTID_1":11645,"OBJECTID":11645,"Applicatio":"2018-02-21T00:00:00.000Z","Job_Number":123190947,"Job_Type":"A1","Enlargemen":"No","Lat":40.72286987,"Long":-73.98940277,"BIN_Number":1005539,"Address":"151 EAST HOUSTON STREET","Borough":1,"Type":"A1","Borough_Na":"MANHATTAN"}},
{"type":"Feature","geometry":{"type":"Point","coordinates":[-73.9597473096919,40.71844863960581]},"properties":{"OBJECTID_1":11848,"OBJECTID":11848,"Applicatio":"2018-02-21T00:00:00.000Z","Job_Number":321697678,"Job_Type":"A1","Enlargemen":"No","Lat":40.71844864,"Long":-73.95974731,"BIN_Number":3062061,"Address":"109 NORTH 6 STREET","Borough":3,"Type":"A1","Borough_Na":"BROOKLYN"}},
{"type":"Feature","geometry":{"type":"Point","coordinates":[-74.00782776018106,40.74168014997126]},"properties":{"OBJECTID_1":11914,"OBJECTID":11914,"Applicatio":"2018-02-22T00:00:00.000Z","Job_Number":104020827,"Job_Type":"A1","Enlargemen":"","Lat":40.74168015,"Long":-74.00782776,"BIN_Number":1012223,"Address":"450 WEST 14 STREET","Borough":1,"Type":"A1","Borough_Na":"MANHATTAN"}},
{"type":"Feature","geometry":{"type":"Point","coordinates":[-73.98948668953834,40.72024155026189]},"properties":{"OBJECTID_1":12047,"OBJECTID":12047,"Applicatio":"2018-02-22T00:00:00.000Z","Job_Number":123355948,"Job_Type":"A1","Enlargemen":"No","Lat":40.72024155,"Long":-73.98948669,"BIN_Number":1005497,"Address":"79 RIVINGTON STREET","Borough":1,"Type":"A1","Borough_Na":"MANHATTAN"}},
{"type":"Feature","geometry":{"type":"Point","coordinates":[-74.00670624056617,40.73920059043504]},"properties":{"OBJECTID_1":12265,"OBJECTID":12265,"Applicatio":"2018-02-23T00:00:00.000Z","Job_Number":121193421,"Job_Type":"A1","Enlargemen":"","Lat":40.73920059,"Long":-74.00670624,"BIN_Number":1012157,"Address":"46 GANSEVOORT STREET","Borough":1,"Type":"A1","Borough_Na":"MANHATTAN"}},
{"type":"Feature","geometry":{"type":"Point","coordinates":[-73.94367218046384,40.71213912964826]},"properties":{"OBJECTID_1":12472,"OBJECTID":12472,"Applicatio":"2018-02-23T00:00:00.000Z","Job_Number":321433757,"Job_Type":"A1","Enlargemen":"","Lat":40.71213913,"Long":-73.94367218,"BIN_Number":3069431,"Address":"286 GRAHAM AVE.","Borough":3,"Type":"A1","Borough_Na":"BROOKLYN"}},
{"type":"Feature","geometry":{"type":"Point","coordinates":[-73.97770691009823,40.72814178021128]},"properties":{"OBJECTID_1":12589,"OBJECTID":12589,"Applicatio":"2018-02-26T00:00:00.000Z","Job_Number":120362115,"Job_Type":"A1","Enlargemen":"","Lat":40.72814178,"Long":-73.97770691,"BIN_Number":1004927,"Address":"620 EAST 13TH STREET","Borough":1,"Type":"A1","Borough_Na":"MANHATTAN"}},
{"type":"Feature","geometry":{"type":"Point","coordinates":[-73.98580169971274,40.71915817023035]},"properties":{"OBJECTID_1":12941,"OBJECTID":12941,"Applicatio":"2018-02-27T00:00:00.000Z","Job_Number":122571234,"Job_Type":"A1","Enlargemen":"","Lat":40.71915817,"Long":-73.9858017,"BIN_Number":1004171,"Address":"149 RIVINGTON ST","Borough":1,"Type":"A1","Borough_Na":"MANHATTAN"}},
{"type":"Feature","geometry":{"type":"Point","coordinates":[-73.96690369058888,40.71086884030666]},"properties":{"OBJECTID_1":13144,"OBJECTID":13144,"Applicatio":"2018-02-27T00:00:00.000Z","Job_Number":321535335,"Job_Type":"A1","Enlargemen":"No","Lat":40.71086884,"Long":-73.96690369,"BIN_Number":3425619,"Address":"49 BROADWAY","Borough":3,"Type":"A1","Borough_Na":"BROOKLYN"}},
{"type":"Feature","geometry":{"type":"Point","coordinates":[-74.00652312984091,40.73999022968832]},"properties":{"OBJECTID_1":13250,"OBJECTID":13250,"Applicatio":"2018-02-28T00:00:00.000Z","Job_Number":121797895,"Job_Type":"A1","Enlargemen":"","Lat":40.73999023,"Long":-74.00652313,"BIN_Number":1012215,"Address":"9 9TH AVENUE","Borough":1,"Type":"A1","Borough_Na":"MANHATTAN"}},
{"type":"Feature","geometry":{"type":"Point","coordinates":[-73.99520110997206,40.72288895011353]},"properties":{"OBJECTID_1":13565,"OBJECTID":13565,"Applicatio":"2018-03-01T00:00:00.000Z","Job_Number":121333690,"Job_Type":"A1","Enlargemen":"","Lat":40.72288895,"Long":-73.99520111,"BIN_Number":1007495,"Address":"32 PRINCE STREET","Borough":1,"Type":"A1","Borough_Na":"MANHATTAN"}},
{"type":"Feature","geometry":{"type":"Point","coordinates":[-73.98499298058023,40.726230619903774]},"properties":{"OBJECTID_1":13572,"OBJECTID":13572,"Applicatio":"2018-03-01T00:00:00.000Z","Job_Number":122459570,"Job_Type":"A1","Enlargemen":"","Lat":40.72623062,"Long":-73.98499298,"BIN_Number":1005806,"Address":"421 EAST 6TH STREET","Borough":1,"Type":"A1","Borough_Na":"MANHATTAN"}},
{"type":"Feature","geometry":{"type":"Point","coordinates":[-73.94683075040368,40.7130584702175]},"properties":{"OBJECTID_1":13810,"OBJECTID":13810,"Applicatio":"2018-03-01T00:00:00.000Z","Job_Number":321655561,"Job_Type":"A1","Enlargemen":"No","Lat":40.71305847,"Long":-73.94683075,"BIN_Number":3069032,"Address":"183 AINSLIE STREET","Borough":3,"Type":"A1","Borough_Na":"BROOKLYN"}},
{"type":"Feature","geometry":{"type":"Point","coordinates":[-73.99669646985187,40.72480011029409]},"properties":{"OBJECTID_1":13909,"OBJECTID":13909,"Applicatio":"2018-03-02T00:00:00.000Z","Job_Number":103940568,"Job_Type":"A1","Enlargemen":"","Lat":40.72480011,"Long":-73.99669647,"BIN_Number":1007944,"Address":"594 BROADWAY","Borough":1,"Type":"A1","Borough_Na":"MANHATTAN"}},
{"type":"Feature","geometry":{"type":"Point","coordinates":[-74.0063324002449,40.74071120981393]},"properties":{"OBJECTID_1":13924,"OBJECTID":13924,"Applicatio":"2018-03-02T00:00:00.000Z","Job_Number":121204589,"Job_Type":"A1","Enlargemen":"No","Lat":40.74071121,"Long":-74.0063324,"BIN_Number":1012239,"Address":"405 WEST 13TH STREET","Borough":1,"Type":"A1","Borough_Na":"MANHATTAN"}},
{"type":"Feature","geometry":{"type":"Point","coordinates":[-73.98692321971073,40.732028960112764]},"properties":{"OBJECTID_1":13927,"OBJECTID":13927,"Applicatio":"2018-03-02T00:00:00.000Z","Job_Number":121961243,"Job_Type":"A1","Enlargemen":"","Lat":40.73202896,"Long":-73.98692322,"BIN_Number":1006860,"Address":"222 E 13 STREET","Borough":1,"Type":"A1","Borough_Na":"MANHATTAN"}},
{"type":"Feature","geometry":{"type":"Point","coordinates":[-73.98509978952076,40.73263931019588]},"properties":{"OBJECTID_1":14229,"OBJECTID":14229,"Applicatio":"2018-03-05T00:00:00.000Z","Job_Number":120808420,"Job_Type":"A1","Enlargemen":"","Lat":40.73263931,"Long":-73.98509979,"BIN_Number":1019514,"Address":"231 SECOND AVENUE","Borough":1,"Type":"A1","Borough_Na":"MANHATTAN"}},
{"type":"Feature","geometry":{"type":"Point","coordinates":[-73.99684906015337,40.73791121955069]},"properties":{"OBJECTID_1":14242,"OBJECTID":14242,"Applicatio":"2018-03-05T00:00:00.000Z","Job_Number":122288416,"Job_Type":"A1","Enlargemen":"No","Lat":40.73791122,"Long":-73.99684906,"BIN_Number":1014528,"Address":"541 SIXTH AVENUE","Borough":1,"Type":"A1","Borough_Na":"MANHATTAN"}},
{"type":"Feature","geometry":{"type":"Point","coordinates":[-74.00105286055611,40.73603058008171]},"properties":{"OBJECTID_1":14296,"OBJECTID":14296,"Applicatio":"2018-03-05T00:00:00.000Z","Job_Number":123350104,"Job_Type":"A1","Enlargemen":"No","Lat":40.73603058,"Long":-74.00105286,"BIN_Number":1010938,"Address":"59 GREENWICH AVE","Borough":1,"Type":"A1","Borough_Na":"MANHATTAN"}},
{"type":"Feature","geometry":{"type":"Point","coordinates":[-74.00476836986151,40.74121093967342]},"properties":{"OBJECTID_1":14488,"OBJECTID":14488,"Applicatio":"2018-03-06T00:00:00.000Z","Job_Number":120157409,"Job_Type":"A1","Enlargemen":"","Lat":40.74121094,"Long":-74.00476837,"BIN_Number":1013042,"Address":"56 NINTH AVENUE","Borough":1,"Type":"A1","Borough_Na":"MANHATTAN"}},
{"type":"Feature","geometry":{"type":"Point","coordinates":[-73.99173736961033,40.725101469637686]},"properties":{"OBJECTID_1":14832,"OBJECTID":14832,"Applicatio":"2018-03-07T00:00:00.000Z","Job_Number":110132017,"Job_Type":"A1","Enlargemen":"","Lat":40.72510147,"Long":-73.99173737,"BIN_Number":1006536,"Address":"315 BOWERY","Borough":1,"Type":"A1","Borough_Na":"MANHATTAN"}},
{"type":"Feature","geometry":{"type":"Point","coordinates":[-73.96385192997818,40.711990359677735]},"properties":{"OBJECTID_1":15018,"OBJECTID":15018,"Applicatio":"2018-03-07T00:00:00.000Z","Job_Number":320723286,"Job_Type":"A1","Enlargemen":"No","Lat":40.71199036,"Long":-73.96385193,"BIN_Number":3063428,"Address":"98 SOUTH 4 STREET","Borough":3,"Type":"A1","Borough_Na":"BROOKLYN"}},
{"type":"Feature","geometry":{"type":"Point","coordinates":[-73.99407195950216,40.721199040155945]},"properties":{"OBJECTID_1":15171,"OBJECTID":15171,"Applicatio":"2018-03-08T00:00:00.000Z","Job_Number":122398155,"Job_Type":"A1","Enlargemen":"","Lat":40.72119904,"Long":-73.99407196,"BIN_Number":1007408,"Address":"190 BOWERY","Borough":1,"Type":"A1","Borough_Na":"MANHATTAN"}},
{"type":"Feature","geometry":{"type":"Point","coordinates":[-73.99389648021425,40.71961975044143]},"properties":{"OBJECTID_1":15432,"OBJECTID":15432,"Applicatio":"2018-03-09T00:00:00.000Z","Job_Number":102664699,"Job_Type":"A1","Enlargemen":"","Lat":40.71961975,"Long":-73.99389648,"BIN_Number":1005657,"Address":"161 BOWERY","Borough":1,"Type":"A1","Borough_Na":"MANHATTAN"}},
{"type":"Feature","geometry":{"type":"Point","coordinates":[-73.99006652944622,40.71878815014067]},"properties":{"OBJECTID_1":15456,"OBJECTID":15456,"Applicatio":"2018-03-09T00:00:00.000Z","Job_Number":122512414,"Job_Type":"A1","Enlargemen":"","Lat":40.71878815,"Long":-73.99006653,"BIN_Number":1005471,"Address":"103 ORCHARD STREET","Borough":1,"Type":"A1","Borough_Na":"MANHATTAN"}},
{"type":"Feature","geometry":{"type":"Point","coordinates":[-74.00689697054864,40.739650730173345]},"properties":{"OBJECTID_1":15760,"OBJECTID":15760,"Applicatio":"2018-03-12T00:00:00.000Z","Job_Number":120323435,"Job_Type":"A1","Enlargemen":"No","Lat":40.73965073,"Long":-74.00689697,"BIN_Number":1012190,"Address":"12 LITTLE WEST 12 STREET","Borough":1,"Type":"A1","Borough_Na":"MANHATTAN"}},
{"type":"Feature","geometry":{"type":"Point","coordinates":[-74.00360869995673,40.73728942996728]},"properties":{"OBJECTID_1":15762,"OBJECTID":15762,"Applicatio":"2018-03-12T00:00:00.000Z","Job_Number":121185010,"Job_Type":"A1","Enlargemen":"","Lat":40.73728943,"Long":-74.0036087,"BIN_Number":1010999,"Address":"313 WEST 4TH STREET","Borough":1,"Type":"A1","Borough_Na":"MANHATTAN"}},
{"type":"Feature","geometry":{"type":"Point","coordinates":[-73.99478912040391,40.720390319948656]},"properties":{"OBJECTID_1":15763,"OBJECTID":15763,"Applicatio":"2018-03-12T00:00:00.000Z","Job_Number":121185190,"Job_Type":"A1","Enlargemen":"","Lat":40.72039032,"Long":-73.99478912,"BIN_Number":1090480,"Address":"154 ELIZABETH STREET","Borough":1,"Type":"A1","Borough_Na":"MANHATTAN"}},
{"type":"Feature","geometry":{"type":"Point","coordinates":[-73.9964981101009,40.736560819930936]},"properties":{"OBJECTID_1":16032,"OBJECTID":16032,"Applicatio":"2018-03-13T00:00:00.000Z","Job_Number":122139051,"Job_Type":"A1","Enlargemen":"","Lat":40.73656082,"Long":-73.99649811,"BIN_Number":1009722,"Address":"55 W 13 STREET","Borough":1,"Type":"A1","Borough_Na":"MANHATTAN"}},
{"type":"Feature","geometry":{"type":"Point","coordinates":[-73.99433898947493,40.72603988982617]},"properties":{"OBJECTID_1":16045,"OBJECTID":16045,"Applicatio":"2018-03-13T00:00:00.000Z","Job_Number":122888349,"Job_Type":"A1","Enlargemen":"No","Lat":40.72603989,"Long":-73.99433899,"BIN_Number":1008452,"Address":"337 LAFAYETTE STREET","Borough":1,"Type":"A1","Borough_Na":"MANHATTAN"}},
{"type":"Feature","geometry":{"type":"Point","coordinates":[-73.94949340988744,40.713039399602984]},"properties":{"OBJECTID_1":16215,"OBJECTID":16215,"Applicatio":"2018-03-13T00:00:00.000Z","Job_Number":320625374,"Job_Type":"A1","Enlargemen":"","Lat":40.7130394,"Long":-73.94949341,"BIN_Number":3322935,"Address":"539 LORIMER STREET","Borough":3,"Type":"A1","Borough_Na":"BROOKLYN"}},
{"type":"Feature","geometry":{"type":"Point","coordinates":[-73.94635773014409,40.7148590099588]},"properties":{"OBJECTID_1":16219,"OBJECTID":16219,"Applicatio":"2018-03-13T00:00:00.000Z","Job_Number":320909148,"Job_Type":"A1","Enlargemen":"","Lat":40.71485901,"Long":-73.94635773,"BIN_Number":3068711,"Address":"321 MANHATTAN AVENUE","Borough":3,"Type":"A1","Borough_Na":"BROOKLYN"}},
{"type":"Feature","geometry":{"type":"Point","coordinates":[-73.95034790047734,40.710781100140565]},"properties":{"OBJECTID_1":16270,"OBJECTID":16270,"Applicatio":"2018-03-13T00:00:00.000Z","Job_Number":321736216,"Job_Type":"A1","Enlargemen":"No","Lat":40.7107811,"Long":-73.9503479,"BIN_Number":3256427,"Address":"524 GRAND STREET","Borough":3,"Type":"A1","Borough_Na":"BROOKLYN"}},
{"type":"Feature","geometry":{"type":"Point","coordinates":[-73.96587371974923,40.71134185979043]},"properties":{"OBJECTID_1":16557,"OBJECTID":16557,"Applicatio":"2018-03-14T00:00:00.000Z","Job_Number":320915364,"Job_Type":"A1","Enlargemen":"No","Lat":40.71134186,"Long":-73.96587372,"BIN_Number":3063538,"Address":"67 SOUTH 6TH STREET","Borough":3,"Type":"A1","Borough_Na":"BROOKLYN"}},
{"type":"Feature","geometry":{"type":"Point","coordinates":[-73.98813629030552,40.721008300255555]},"properties":{"OBJECTID_1":16679,"OBJECTID":16679,"Applicatio":"2018-03-15T00:00:00.000Z","Job_Number":103075459,"Job_Type":"A1","Enlargemen":"","Lat":40.7210083,"Long":-73.98813629,"BIN_Number":1005353,"Address":"157 LUDLOW STREET","Borough":1,"Type":"A1","Borough_Na":"MANHATTAN"}},
{"type":"Feature","geometry":{"type":"Point","coordinates":[-74.00605773947734,40.74254989967636]},"properties":{"OBJECTID_1":16680,"OBJECTID":16680,"Applicatio":"2018-03-15T00:00:00.000Z","Job_Number":103434437,"Job_Type":"A1","Enlargemen":"","Lat":40.7425499,"Long":-74.00605774,"BIN_Number":1012541,"Address":"75 9 AVENUE","Borough":1,"Type":"A1","Borough_Na":"MANHATTAN"}},
{"type":"Feature","geometry":{"type":"Point","coordinates":[-73.98535918956183,40.73384857006755]},"properties":{"OBJECTID_1":16689,"OBJECTID":16689,"Applicatio":"2018-03-15T00:00:00.000Z","Job_Number":121192431,"Job_Type":"A1","Enlargemen":"No","Lat":40.73384857,"Long":-73.98535919,"BIN_Number":1082120,"Address":"218 EAST 16TH STREET","Borough":1,"Type":"A1","Borough_Na":"MANHATTAN"}},
{"type":"Feature","geometry":{"type":"Point","coordinates":[-73.96489716043482,40.715400699573365]},"properties":{"OBJECTID_1":16920,"OBJECTID":16920,"Applicatio":"2018-03-15T00:00:00.000Z","Job_Number":321184945,"Job_Type":"A1","Enlargemen":"No","Lat":40.7154007,"Long":-73.96489716,"BIN_Number":3330366,"Address":"57 SOUTH 1 STREET","Borough":3,"Type":"A1","Borough_Na":"BROOKLYN"}},
{"type":"Feature","geometry":{"type":"Point","coordinates":[-73.99432372964043,40.7238006596749]},"properties":{"OBJECTID_1":17030,"OBJECTID":17030,"Applicatio":"2018-03-16T00:00:00.000Z","Job_Number":121188017,"Job_Type":"A1","Enlargemen":"No","Lat":40.72380066,"Long":-73.99432373,"BIN_Number":1007888,"Address":"262 MOTT STREET","Borough":1,"Type":"A1","Borough_Na":"MANHATTAN"}},
{"type":"Feature","geometry":{"type":"Point","coordinates":[-74.00650787053004,40.74089050001021]},"properties":{"OBJECTID_1":17031,"OBJECTID":17031,"Applicatio":"2018-03-16T00:00:00.000Z","Job_Number":121190718,"Job_Type":"A1","Enlargemen":"No","Lat":40.7408905,"Long":-74.00650787,"BIN_Number":1086105,"Address":"412 WEST 14TH STREET","Borough":1,"Type":"A1","Borough_Na":"MANHATTAN"}},
{"type":"Feature","geometry":{"type":"Point","coordinates":[-73.98499298058023,40.726230619903774]},"properties":{"OBJECTID_1":17045,"OBJECTID":17045,"Applicatio":"2018-03-16T00:00:00.000Z","Job_Number":122459570,"Job_Type":"A1","Enlargemen":"","Lat":40.72623062,"Long":-73.98499298,"BIN_Number":1005806,"Address":"421 EAST 6TH STREET","Borough":1,"Type":"A1","Borough_Na":"MANHATTAN"}},
{"type":"Feature","geometry":{"type":"Point","coordinates":[-73.96385192997818,40.711990359677735]},"properties":{"OBJECTID_1":17307,"OBJECTID":17307,"Applicatio":"2018-03-16T00:00:00.000Z","Job_Number":321301239,"Job_Type":"A1","Enlargemen":"No","Lat":40.71199036,"Long":-73.96385193,"BIN_Number":3063428,"Address":"98 SOUTH 4TH STREET","Borough":3,"Type":"A1","Borough_Na":"BROOKLYN"}},
{"type":"Feature","geometry":{"type":"Point","coordinates":[-73.95082854996213,40.714839939807064]},"properties":{"OBJECTID_1":17331,"OBJECTID":17331,"Applicatio":"2018-03-16T00:00:00.000Z","Job_Number":321637653,"Job_Type":"A1","Enlargemen":"No","Lat":40.71483994,"Long":-73.95082855,"BIN_Number":3322860,"Address":"19 CONSELYEA STREET","Borough":3,"Type":"A1","Borough_Na":"BROOKLYN"}},
{"type":"Feature","geometry":{"type":"Point","coordinates":[-73.99566650004266,40.72277832028156]},"properties":{"OBJECTID_1":17434,"OBJECTID":17434,"Applicatio":"2018-03-19T00:00:00.000Z","Job_Number":103130737,"Job_Type":"A1","Enlargemen":"","Lat":40.72277832,"Long":-73.9956665,"BIN_Number":1007491,"Address":"240 MULBERRY STREET","Borough":1,"Type":"A1","Borough_Na":"MANHATTAN"}},
{"type":"Feature","geometry":{"type":"Point","coordinates":[-74.00798034961912,40.74338912965168]},"properties":{"OBJECTID_1":17435,"OBJECTID":17435,"Applicatio":"2018-03-19T00:00:00.000Z","Job_Number":103623900,"Job_Type":"A1","Enlargemen":"","Lat":40.74338913,"Long":-74.00798035,"BIN_Number":1012277,"Address":"85 TENTH AVENUE","Borough":1,"Type":"A1","Borough_Na":"MANHATTAN"}},
{"type":"Feature","geometry":{"type":"Point","coordinates":[-73.99455261016605,40.7224082896739]},"properties":{"OBJECTID_1":17437,"OBJECTID":17437,"Applicatio":"2018-03-19T00:00:00.000Z","Job_Number":104053159,"Job_Type":"A1","Enlargemen":"","Lat":40.72240829,"Long":-73.99455261,"BIN_Number":1007483,"Address":"209 ELIZABETH STREET","Borough":1,"Type":"A1","Borough_Na":"MANHATTAN"}},
{"type":"Feature","geometry":{"type":"Point","coordinates":[-74.00360869995673,40.73728942996728]},"properties":{"OBJECTID_1":17440,"OBJECTID":17440,"Applicatio":"2018-03-19T00:00:00.000Z","Job_Number":121185010,"Job_Type":"A1","Enlargemen":"No","Lat":40.73728943,"Long":-74.0036087,"BIN_Number":1010999,"Address":"313 WEST 4TH STREET","Borough":1,"Type":"A1","Borough_Na":"MANHATTAN"}},
{"type":"Feature","geometry":{"type":"Point","coordinates":[-73.99759673980621,40.723670959797545]},"properties":{"OBJECTID_1":17468,"OBJECTID":17468,"Applicatio":"2018-03-19T00:00:00.000Z","Job_Number":123104112,"Job_Type":"A1","Enlargemen":"No","Lat":40.72367096,"Long":-73.99759674,"BIN_Number":1007566,"Address":"558 BROADWAY","Borough":1,"Type":"A1","Borough_Na":"MANHATTAN"}},
{"type":"Feature","geometry":{"type":"Point","coordinates":[-73.99536133016521,40.73524856974615]},"properties":{"OBJECTID_1":17758,"OBJECTID":17758,"Applicatio":"2018-03-20T00:00:00.000Z","Job_Number":110359610,"Job_Type":"A1","Enlargemen":"","Lat":40.73524857,"Long":-73.99536133,"BIN_Number":1009623,"Address":"19 WEST 12TH STREET","Borough":1,"Type":"A1","Borough_Na":"MANHATTAN"}},
{"type":"Feature","geometry":{"type":"Point","coordinates":[-74.0063324002449,40.74071120981393]},"properties":{"OBJECTID_1":17769,"OBJECTID":17769,"Applicatio":"2018-03-20T00:00:00.000Z","Job_Number":121204589,"Job_Type":"A1","Enlargemen":"No","Lat":40.74071121,"Long":-74.0063324,"BIN_Number":1012239,"Address":"405 WEST 13TH STREET","Borough":1,"Type":"A1","Borough_Na":"MANHATTAN"}},
{"type":"Feature","geometry":{"type":"Point","coordinates":[-74.00670624056617,40.73920059043504]},"properties":{"OBJECTID_1":18148,"OBJECTID":18148,"Applicatio":"2018-03-21T00:00:00.000Z","Job_Number":121193421,"Job_Type":"A1","Enlargemen":"","Lat":40.73920059,"Long":-74.00670624,"BIN_Number":1012157,"Address":"46 GANSEVOORT STREET","Borough":1,"Type":"A1","Borough_Na":"MANHATTAN"}},
{"type":"Feature","geometry":{"type":"Point","coordinates":[-73.9879226704189,40.728870390003955]},"properties":{"OBJECTID_1":18708,"OBJECTID":18708,"Applicatio":"2018-03-23T00:00:00.000Z","Job_Number":104343266,"Job_Type":"A1","Enlargemen":"","Lat":40.72887039,"Long":-73.98792267,"BIN_Number":1006748,"Address":"133 2 AVENUE","Borough":1,"Type":"A1","Borough_Na":"MANHATTAN"}},
{"type":"Feature","geometry":{"type":"Point","coordinates":[-73.99688720970703,40.73505019959733]},"properties":{"OBJECTID_1":19179,"OBJECTID":19179,"Applicatio":"2018-03-26T00:00:00.000Z","Job_Number":122971301,"Job_Type":"A1","Enlargemen":"No","Lat":40.7350502,"Long":-73.99688721,"BIN_Number":1009597,"Address":"51 WEST 11TH STREET","Borough":1,"Type":"A1","Borough_Na":"MANHATTAN"}},
{"type":"Feature","geometry":{"type":"Point","coordinates":[-73.93726349030233,40.709148409610684]},"properties":{"OBJECTID_1":19390,"OBJECTID":19390,"Applicatio":"2018-03-26T00:00:00.000Z","Job_Number":321727994,"Job_Type":"A1","Enlargemen":"No","Lat":40.70914841,"Long":-73.93726349,"BIN_Number":3350278,"Address":"282 SCHOLES STREET","Borough":3,"Type":"A1","Borough_Na":"BROOKLYN"}},
{"type":"Feature","geometry":{"type":"Point","coordinates":[-73.97902679037328,40.73677826038263]},"properties":{"OBJECTID_1":19469,"OBJECTID":19469,"Applicatio":"2018-03-27T00:00:00.000Z","Job_Number":122233109,"Job_Type":"A1","Enlargemen":"No","Lat":40.73677826,"Long":-73.97902679,"BIN_Number":1086124,"Address":"385 FIRST AVENUE","Borough":1,"Type":"A1","Borough_Na":"MANHATTAN"}},
{"type":"Feature","geometry":{"type":"Point","coordinates":[-73.95935821956937,40.715591429959666]},"properties":{"OBJECTID_1":19663,"OBJECTID":19663,"Applicatio":"2018-03-27T00:00:00.000Z","Job_Number":320623777,"Job_Type":"A1","Enlargemen":"","Lat":40.71559143,"Long":-73.95935822,"BIN_Number":3062371,"Address":"156 NORTH 4TH STREET","Borough":3,"Type":"A1","Borough_Na":"BROOKLYN"}},
{"type":"Feature","geometry":{"type":"Point","coordinates":[-73.98999022970642,40.723018650361944]},"properties":{"OBJECTID_1":19864,"OBJECTID":19864,"Applicatio":"2018-03-28T00:00:00.000Z","Job_Number":123215939,"Job_Type":"A1","Enlargemen":"No","Lat":40.72301865,"Long":-73.98999023,"BIN_Number":1005618,"Address":"143 EAST HOUSTON STREET","Borough":1,"Type":"A1","Borough_Na":"MANHATTAN"}},
{"type":"Feature","geometry":{"type":"Point","coordinates":[-73.98709105945628,40.72863007018088]},"properties":{"OBJECTID_1":20175,"OBJECTID":20175,"Applicatio":"2018-03-29T00:00:00.000Z","Job_Number":122402863,"Job_Type":"A1","Enlargemen":"","Lat":40.72863007,"Long":-73.98709106,"BIN_Number":1079104,"Address":"136 2ND AVE","Borough":1,"Type":"A1","Borough_Na":"MANHATTAN"}},
{"type":"Feature","geometry":{"type":"Point","coordinates":[-74.00100707989824,40.73596953957336]},"properties":{"OBJECTID_1":20207,"OBJECTID":20207,"Applicatio":"2018-03-29T00:00:00.000Z","Job_Number":123119598,"Job_Type":"A1","Enlargemen":"No","Lat":40.73596954,"Long":-74.00100708,"BIN_Number":1010939,"Address":"1 PERRY STREET","Borough":1,"Type":"A1","Borough_Na":"MANHATTAN"}},
{"type":"Feature","geometry":{"type":"Point","coordinates":[-73.99166869955104,40.73207855006772]},"properties":{"OBJECTID_1":20226,"OBJECTID":20226,"Applicatio":"2018-03-29T00:00:00.000Z","Job_Number":123188380,"Job_Type":"A1","Enlargemen":"No","Lat":40.73207855,"Long":-73.9916687,"BIN_Number":1009111,"Address":"791 BROADWAY","Borough":1,"Type":"A1","Borough_Na":"MANHATTAN"}},
{"type":"Feature","geometry":{"type":"Point","coordinates":[-73.9876174895207,40.726768489964584]},"properties":{"OBJECTID_1":20261,"OBJECTID":20261,"Applicatio":"2018-03-29T00:00:00.000Z","Job_Number":123358810,"Job_Type":"A1","Enlargemen":"No","Lat":40.72676849,"Long":-73.98761749,"BIN_Number":1076957,"Address":"320 REAR EAST 6 STREET","Borough":1,"Type":"A1","Borough_Na":"MANHATTAN"}},
{"type":"Feature","geometry":{"type":"Point","coordinates":[-73.99307250992918,40.72391891000343]},"properties":{"OBJECTID_1":20333,"OBJECTID":20333,"Applicatio":"2018-03-29T00:00:00.000Z","Job_Number":123428656,"Job_Type":"A1","Enlargemen":"No","Lat":40.72391891,"Long":-73.99307251,"BIN_Number":1007864,"Address":"280 BOWERY","Borough":1,"Type":"A1","Borough_Na":"MANHATTAN"}},
{"type":"Feature","geometry":{"type":"Point","coordinates":[-73.99311065947731,40.72381973020331]},"properties":{"OBJECTID_1":20334,"OBJECTID":20334,"Applicatio":"2018-03-29T00:00:00.000Z","Job_Number":123428665,"Job_Type":"A1","Enlargemen":"No","Lat":40.72381973,"Long":-73.99311066,"BIN_Number":1007865,"Address":"276 BOWERY","Borough":1,"Type":"A1","Borough_Na":"MANHATTAN"}},
{"type":"Feature","geometry":{"type":"Point","coordinates":[-73.99304961977494,40.724040989761036]},"properties":{"OBJECTID_1":20335,"OBJECTID":20335,"Applicatio":"2018-03-29T00:00:00.000Z","Job_Number":123428674,"Job_Type":"A1","Enlargemen":"No","Lat":40.72404099,"Long":-73.99304962,"BIN_Number":1007863,"Address":"87 EAST HOUSTON STREET","Borough":1,"Type":"A1","Borough_Na":"MANHATTAN"}},
{"type":"Feature","geometry":{"type":"Point","coordinates":[-74.00650787053004,40.74089050001021]},"properties":{"OBJECTID_1":20536,"OBJECTID":20536,"Applicatio":"2018-03-30T00:00:00.000Z","Job_Number":121190718,"Job_Type":"A1","Enlargemen":"No","Lat":40.7408905,"Long":-74.00650787,"BIN_Number":1086105,"Address":"412 WEST 14TH STREET","Borough":1,"Type":"A1","Borough_Na":"MANHATTAN"}},
{"type":"Feature","geometry":{"type":"Point","coordinates":[-73.95265960966525,40.71504974011997]},"properties":{"OBJECTID_1":20821,"OBJECTID":20821,"Applicatio":"2018-03-30T00:00:00.000Z","Job_Number":321665872,"Job_Type":"A1","Enlargemen":"No","Lat":40.71504974,"Long":-73.95265961,"BIN_Number":3425159,"Address":"297 NORTH 7 STREET","Borough":3,"Type":"A1","Borough_Na":"BROOKLYN"}},
{"type":"Feature","geometry":{"type":"Point","coordinates":[-74.00360869995673,40.73728942996728]},"properties":{"OBJECTID_1":20907,"OBJECTID":20907,"Applicatio":"2018-04-02T00:00:00.000Z","Job_Number":121185010,"Job_Type":"A1","Enlargemen":"","Lat":40.73728943,"Long":-74.0036087,"BIN_Number":1010999,"Address":"313 WEST 4TH STREET","Borough":1,"Type":"A1","Borough_Na":"MANHATTAN"}},
{"type":"Feature","geometry":{"type":"Point","coordinates":[-73.94566345005542,40.713378910411755]},"properties":{"OBJECTID_1":21116,"OBJECTID":21116,"Applicatio":"2018-04-02T00:00:00.000Z","Job_Number":321193819,"Job_Type":"A1","Enlargemen":"","Lat":40.71337891,"Long":-73.94566345,"BIN_Number":3069042,"Address":"286 MANHATTAN AVE","Borough":3,"Type":"A1","Borough_Na":"BROOKLYN"}},
{"type":"Feature","geometry":{"type":"Point","coordinates":[-74.00369263000034,40.737911219664866]},"properties":{"OBJECTID_1":21273,"OBJECTID":21273,"Applicatio":"2018-04-03T00:00:00.000Z","Job_Number":122770000,"Job_Type":"A1","Enlargemen":"","Lat":40.73791122,"Long":-74.00369263,"BIN_Number":1011034,"Address":"327 WEST 4TH ST","Borough":1,"Type":"A1","Borough_Na":"MANHATTAN"}},
{"type":"Feature","geometry":{"type":"Point","coordinates":[-73.99713135039454,40.723228449678246]},"properties":{"OBJECTID_1":21274,"OBJECTID":21274,"Applicatio":"2018-04-03T00:00:00.000Z","Job_Number":122773490,"Job_Type":"A1","Enlargemen":"","Lat":40.72322845,"Long":-73.99713135,"BIN_Number":1007540,"Address":"91 CROSBY STREET","Borough":1,"Type":"A1","Borough_Na":"MANHATTAN"}},
{"type":"Feature","geometry":{"type":"Point","coordinates":[-73.99828339012824,40.72142029018794]},"properties":{"OBJECTID_1":21538,"OBJECTID":21538,"Applicatio":"2018-04-04T00:00:00.000Z","Job_Number":121056445,"Job_Type":"A1","Enlargemen":"","Lat":40.72142029,"Long":-73.99828339,"BIN_Number":1007223,"Address":"200 LAFAYETTE STREET","Borough":1,"Type":"A1","Borough_Na":"MANHATTAN"}},
{"type":"Feature","geometry":{"type":"Point","coordinates":[-73.99079894946793,40.7270011896768]},"properties":{"OBJECTID_1":21570,"OBJECTID":21570,"Applicatio":"2018-04-04T00:00:00.000Z","Job_Number":123036204,"Job_Type":"A1","Enlargemen":"No","Lat":40.72700119,"Long":-73.99079895,"BIN_Number":1082642,"Address":"59 EAST 4TH STREET","Borough":1,"Type":"A1","Borough_Na":"MANHATTAN"}},
{"type":"Feature","geometry":{"type":"Point","coordinates":[-73.98750305037497,40.728370670072394]},"properties":{"OBJECTID_1":21598,"OBJECTID":21598,"Applicatio":"2018-04-04T00:00:00.000Z","Job_Number":123327541,"Job_Type":"A1","Enlargemen":"","Lat":40.72837067,"Long":-73.98750305,"BIN_Number":1006313,"Address":"130 SECOND AVENUE","Borough":1,"Type":"A1","Borough_Na":"MANHATTAN"}},
{"type":"Feature","geometry":{"type":"Point","coordinates":[-73.99784087987868,40.72193145966909]},"properties":{"OBJECTID_1":21689,"OBJECTID":21689,"Applicatio":"2018-04-04T00:00:00.000Z","Job_Number":123426970,"Job_Type":"A1","Enlargemen":"No","Lat":40.72193146,"Long":-73.99784088,"BIN_Number":1007220,"Address":"216 LAFAYETTE STREET","Borough":1,"Type":"A1","Borough_Na":"MANHATTAN"}},
{"type":"Feature","geometry":{"type":"Point","coordinates":[-73.94100189052534,40.711441039791175]},"properties":{"OBJECTID_1":21770,"OBJECTID":21770,"Applicatio":"2018-04-04T00:00:00.000Z","Job_Number":321314494,"Job_Type":"A1","Enlargemen":"","Lat":40.71144104,"Long":-73.94100189,"BIN_Number":3069645,"Address":"231 MAUJER STREET","Borough":3,"Type":"A1","Borough_Na":"BROOKLYN"}},
{"type":"Feature","geometry":{"type":"Point","coordinates":[-73.94109343948904,40.71417999023206]},"properties":{"OBJECTID_1":21773,"OBJECTID":21773,"Applicatio":"2018-04-04T00:00:00.000Z","Job_Number":321373571,"Job_Type":"A1","Enlargemen":"","Lat":40.71417999,"Long":-73.94109344,"BIN_Number":3070357,"Address":"221 DEVOE STREET","Borough":3,"Type":"A1","Borough_Na":"BROOKLYN"}},
{"type":"Feature","geometry":{"type":"Point","coordinates":[-73.9601364099102,40.71229171993566]},"properties":{"OBJECTID_1":21791,"OBJECTID":21791,"Applicatio":"2018-04-04T00:00:00.000Z","Job_Number":321554901,"Job_Type":"A1","Enlargemen":"","Lat":40.71229172,"Long":-73.96013641,"BIN_Number":3063133,"Address":"194 SOUTH 2ND STREET","Borough":3,"Type":"A1","Borough_Na":"BROOKLYN"}},
{"type":"Feature","geometry":{"type":"Point","coordinates":[-73.93472290018191,40.71564102037962]},"properties":{"OBJECTID_1":21833,"OBJECTID":21833,"Applicatio":"2018-04-04T00:00:00.000Z","Job_Number":321732737,"Job_Type":"A1","Enlargemen":"No","Lat":40.71564102,"Long":-73.9347229,"BIN_Number":3394551,"Address":"259 VANDERVOORT AVENUE","Borough":3,"Type":"A1","Borough_Na":"BROOKLYN"}},
{"type":"Feature","geometry":{"type":"Point","coordinates":[-74.00369263000034,40.737911219664866]},"properties":{"OBJECTID_1":21899,"OBJECTID":21899,"Applicatio":"2018-04-05T00:00:00.000Z","Job_Number":122770000,"Job_Type":"A1","Enlargemen":"","Lat":40.73791122,"Long":-74.00369263,"BIN_Number":1011034,"Address":"327 WEST 4TH ST","Borough":1,"Type":"A1","Borough_Na":"MANHATTAN"}},
{"type":"Feature","geometry":{"type":"Point","coordinates":[-73.95982360994049,40.71340941959477]},"properties":{"OBJECTID_1":22080,"OBJECTID":22080,"Applicatio":"2018-04-05T00:00:00.000Z","Job_Number":320506412,"Job_Type":"A1","Enlargemen":"","Lat":40.71340942,"Long":-73.95982361,"BIN_Number":3335770,"Address":"705 DRIGGS AVENUE","Borough":3,"Type":"A1","Borough_Na":"BROOKLYN"}},
{"type":"Feature","geometry":{"type":"Point","coordinates":[-73.96190643006096,40.71557998956208]},"properties":{"OBJECTID_1":22081,"OBJECTID":22081,"Applicatio":"2018-04-05T00:00:00.000Z","Job_Number":320516330,"Job_Type":"A1","Enlargemen":"","Lat":40.71557999,"Long":-73.96190643,"BIN_Number":3425677,"Address":"119 NORTH 1ST STREET","Borough":3,"Type":"A1","Borough_Na":"BROOKLYN"}},
{"type":"Feature","geometry":{"type":"Point","coordinates":[-73.98026275967011,40.736499789724455]},"properties":{"OBJECTID_1":22227,"OBJECTID":22227,"Applicatio":"2018-04-06T00:00:00.000Z","Job_Number":121242262,"Job_Type":"A1","Enlargemen":"","Lat":40.73649979,"Long":-73.98026276,"BIN_Number":1020564,"Address":"320 EAST 22ND STREET","Borough":1,"Type":"A1","Borough_Na":"MANHATTAN"}},
{"type":"Feature","geometry":{"type":"Point","coordinates":[-74.0047226000941,40.74126815977986]},"properties":{"OBJECTID_1":22232,"OBJECTID":22232,"Applicatio":"2018-04-06T00:00:00.000Z","Job_Number":121808687,"Job_Type":"A1","Enlargemen":"","Lat":40.74126816,"Long":-74.0047226,"BIN_Number":1013041,"Address":"58 9TH AVE","Borough":1,"Type":"A1","Borough_Na":"MANHATTAN"}},
{"type":"Feature","geometry":{"type":"Point","coordinates":[-73.95117949943138,40.71339035000302]},"properties":{"OBJECTID_1":22412,"OBJECTID":22412,"Applicatio":"2018-04-06T00:00:00.000Z","Job_Number":301938349,"Job_Type":"A1","Enlargemen":"No","Lat":40.71339035,"Long":-73.9511795,"BIN_Number":3068767,"Address":"432 UNION AVENUE","Borough":3,"Type":"A1","Borough_Na":"BROOKLYN"}},
{"type":"Feature","geometry":{"type":"Point","coordinates":[-73.95142365046634,40.71475982999243]},"properties":{"OBJECTID_1":22421,"OBJECTID":22421,"Applicatio":"2018-04-06T00:00:00.000Z","Job_Number":320595147,"Job_Type":"A1","Enlargemen":"","Lat":40.71475983,"Long":-73.95142365,"BIN_Number":3322843,"Address":"476 UNION AVE","Borough":3,"Type":"A1","Borough_Na":"BROOKLYN"}},
{"type":"Feature","geometry":{"type":"Point","coordinates":[-73.99343871995131,40.73479080032961]},"properties":{"OBJECTID_1":22562,"OBJECTID":22562,"Applicatio":"2018-04-09T00:00:00.000Z","Job_Number":121188062,"Job_Type":"A1","Enlargemen":"No","Lat":40.7347908,"Long":-73.99343872,"BIN_Number":1009378,"Address":"12 EAST 13TH STREET","Borough":1,"Type":"A1","Borough_Na":"MANHATTAN"}},
{"type":"Feature","geometry":{"type":"Point","coordinates":[-74.00652312984091,40.73999022968832]},"properties":{"OBJECTID_1":22877,"OBJECTID":22877,"Applicatio":"2018-04-10T00:00:00.000Z","Job_Number":121797895,"Job_Type":"A1","Enlargemen":"","Lat":40.73999023,"Long":-74.00652313,"BIN_Number":1012215,"Address":"9 9TH AVENUE","Borough":1,"Type":"A1","Borough_Na":"MANHATTAN"}},
{"type":"Feature","geometry":{"type":"Point","coordinates":[-73.96494293048815,40.710151670206805]},"properties":{"OBJECTID_1":23435,"OBJECTID":23435,"Applicatio":"2018-04-11T00:00:00.000Z","Job_Number":320911858,"Job_Type":"A1","Enlargemen":"No","Lat":40.71015167,"Long":-73.96494293,"BIN_Number":3397723,"Address":"110 BROADWAY","Borough":3,"Type":"A1","Borough_Na":"BROOKLYN"}},
{"type":"Feature","geometry":{"type":"Point","coordinates":[-73.96421814044987,40.71358109019451]},"properties":{"OBJECTID_1":23450,"OBJECTID":23450,"Applicatio":"2018-04-11T00:00:00.000Z","Job_Number":321195381,"Job_Type":"A1","Enlargemen":"","Lat":40.71358109,"Long":-73.96421814,"BIN_Number":3063067,"Address":"288 BERRY STREET","Borough":3,"Type":"A1","Borough_Na":"BROOKLYN"}},
{"type":"Feature","geometry":{"type":"Point","coordinates":[-73.99603270987126,40.72325897044501]},"properties":{"OBJECTID_1":23599,"OBJECTID":23599,"Applicatio":"2018-04-12T00:00:00.000Z","Job_Number":122222905,"Job_Type":"A1","Enlargemen":"","Lat":40.72325897,"Long":-73.99603271,"BIN_Number":1007525,"Address":"50 PRINCE STREET","Borough":1,"Type":"A1","Borough_Na":"MANHATTAN"}},
{"type":"Feature","geometry":{"type":"Point","coordinates":[-73.96235656943713,40.712329860136556]},"properties":{"OBJECTID_1":23795,"OBJECTID":23795,"Applicatio":"2018-04-12T00:00:00.000Z","Job_Number":320786609,"Job_Type":"A1","Enlargemen":"","Lat":40.71232986,"Long":-73.96235657,"BIN_Number":3063268,"Address":"335 BEDFORD AVE","Borough":3,"Type":"A1","Borough_Na":"BROOKLYN"}},
{"type":"Feature","geometry":{"type":"Point","coordinates":[-73.95723723987251,40.711288449685526]},"properties":{"OBJECTID_1":23803,"OBJECTID":23803,"Applicatio":"2018-04-12T00:00:00.000Z","Job_Number":321104416,"Job_Type":"A1","Enlargemen":"","Lat":40.71128845,"Long":-73.95723724,"BIN_Number":3063170,"Address":"270 SOUTH 2ND STREET","Borough":3,"Type":"A1","Borough_Na":"BROOKLYN"}},
{"type":"Feature","geometry":{"type":"Point","coordinates":[-73.98520660043312,40.73310089022712]},"properties":{"OBJECTID_1":24088,"OBJECTID":24088,"Applicatio":"2018-04-13T00:00:00.000Z","Job_Number":123441445,"Job_Type":"A1","Enlargemen":"No","Lat":40.73310089,"Long":-73.9852066,"BIN_Number":1083256,"Address":"238 EAST 15TH STREET","Borough":1,"Type":"A1","Borough_Na":"MANHATTAN"}},
{"type":"Feature","geometry":{"type":"Point","coordinates":[-73.95848846048602,40.71358871032251]},"properties":{"OBJECTID_1":24195,"OBJECTID":24195,"Applicatio":"2018-04-13T00:00:00.000Z","Job_Number":321732185,"Job_Type":"A1","Enlargemen":"No","Lat":40.71358871,"Long":-73.95848846,"BIN_Number":3062664,"Address":"253 GRAND STREET","Borough":3,"Type":"A1","Borough_Na":"BROOKLYN"}},
{"type":"Feature","geometry":{"type":"Point","coordinates":[-73.99343871995131,40.73479080032961]},"properties":{"OBJECTID_1":24266,"OBJECTID":24266,"Applicatio":"2018-04-16T00:00:00.000Z","Job_Number":121188062,"Job_Type":"A1","Enlargemen":"No","Lat":40.7347908,"Long":-73.99343872,"BIN_Number":1009378,"Address":"12 EAST 13TH STREET","Borough":1,"Type":"A1","Borough_Na":"MANHATTAN"}},
{"type":"Feature","geometry":{"type":"Point","coordinates":[-73.99445343035465,40.72649002020195]},"properties":{"OBJECTID_1":24286,"OBJECTID":24286,"Applicatio":"2018-04-16T00:00:00.000Z","Job_Number":122629003,"Job_Type":"A1","Enlargemen":"","Lat":40.72649002,"Long":-73.99445343,"BIN_Number":1008425,"Address":"11 BOND STREET","Borough":1,"Type":"A1","Borough_Na":"MANHATTAN"}},
{"type":"Feature","geometry":{"type":"Point","coordinates":[-73.95944214001506,40.7108612095906]},"properties":{"OBJECTID_1":24552,"OBJECTID":24552,"Applicatio":"2018-04-16T00:00:00.000Z","Job_Number":321743538,"Job_Type":"A1","Enlargemen":"No","Lat":40.71086121,"Long":-73.95944214,"BIN_Number":3063322,"Address":"213 SOUTH 4TH STREET","Borough":3,"Type":"A1","Borough_Na":"BROOKLYN"}},
{"type":"Feature","geometry":{"type":"Point","coordinates":[-73.98599242941818,40.7315101596771]},"properties":{"OBJECTID_1":25018,"OBJECTID":25018,"Applicatio":"2018-04-18T00:00:00.000Z","Job_Number":122427267,"Job_Type":"A1","Enlargemen":"","Lat":40.73151016,"Long":-73.98599243,"BIN_Number":1006869,"Address":"201 2ND AVENUE","Borough":1,"Type":"A1","Borough_Na":"MANHATTAN"}},
{"type":"Feature","geometry":{"type":"Point","coordinates":[-73.95142365046634,40.71475982999243]},"properties":{"OBJECTID_1":25240,"OBJECTID":25240,"Applicatio":"2018-04-18T00:00:00.000Z","Job_Number":320595147,"Job_Type":"A1","Enlargemen":"","Lat":40.71475983,"Long":-73.95142365,"BIN_Number":3322843,"Address":"476 UNION AVE","Borough":3,"Type":"A1","Borough_Na":"BROOKLYN"}},
{"type":"Feature","geometry":{"type":"Point","coordinates":[-73.96379851982111,40.715728760150526]},"properties":{"OBJECTID_1":25241,"OBJECTID":25241,"Applicatio":"2018-04-18T00:00:00.000Z","Job_Number":320596244,"Job_Type":"A1","Enlargemen":"","Lat":40.71572876,"Long":-73.96379852,"BIN_Number":3062604,"Address":"89 GRAND STREET","Borough":3,"Type":"A1","Borough_Na":"BROOKLYN"}},
{"type":"Feature","geometry":{"type":"Point","coordinates":[-73.93708037981287,40.71255875032491]},"properties":{"OBJECTID_1":25297,"OBJECTID":25297,"Applicatio":"2018-04-18T00:00:00.000Z","Job_Number":321545155,"Job_Type":"A1","Enlargemen":"No","Lat":40.71255875,"Long":-73.93708038,"BIN_Number":3070758,"Address":"932 GRAND STREET","Borough":3,"Type":"A1","Borough_Na":"BROOKLYN"}},
{"type":"Feature","geometry":{"type":"Point","coordinates":[-73.95710754028062,40.713420870311495]},"properties":{"OBJECTID_1":25305,"OBJECTID":25305,"Applicatio":"2018-04-18T00:00:00.000Z","Job_Number":321627227,"Job_Type":"A1","Enlargemen":"No","Lat":40.71342087,"Long":-73.95710754,"BIN_Number":3321258,"Address":"26 REAR HOPE STREET","Borough":3,"Type":"A1","Borough_Na":"BROOKLYN"}},
{"type":"Feature","geometry":{"type":"Point","coordinates":[-73.95710754028062,40.713420870311495]},"properties":{"OBJECTID_1":25328,"OBJECTID":25328,"Applicatio":"2018-04-18T00:00:00.000Z","Job_Number":321717246,"Job_Type":"A1","Enlargemen":"No","Lat":40.71342087,"Long":-73.95710754,"BIN_Number":3321259,"Address":"26 HOPE STREET","Borough":3,"Type":"A1","Borough_Na":"BROOKLYN"}},
{"type":"Feature","geometry":{"type":"Point","coordinates":[-73.9601364099102,40.71229171993566]},"properties":{"OBJECTID_1":25664,"OBJECTID":25664,"Applicatio":"2018-04-19T00:00:00.000Z","Job_Number":321554901,"Job_Type":"A1","Enlargemen":"","Lat":40.71229172,"Long":-73.96013641,"BIN_Number":3063133,"Address":"194 SOUTH 2ND STREET","Borough":3,"Type":"A1","Borough_Na":"BROOKLYN"}},
{"type":"Feature","geometry":{"type":"Point","coordinates":[-74.00425720038125,40.736991880106665]},"properties":{"OBJECTID_1":25756,"OBJECTID":25756,"Applicatio":"2018-04-20T00:00:00.000Z","Job_Number":104921373,"Job_Type":"A1","Enlargemen":"","Lat":40.73699188,"Long":-74.0042572,"BIN_Number":1076888,"Address":"61 BANK STREET","Borough":1,"Type":"A1","Borough_Na":"MANHATTAN"}},
{"type":"Feature","geometry":{"type":"Point","coordinates":[-73.96147155941486,40.711910249910694]},"properties":{"OBJECTID_1":26040,"OBJECTID":26040,"Applicatio":"2018-04-20T00:00:00.000Z","Job_Number":321663124,"Job_Type":"A1","Enlargemen":"No","Lat":40.71191025,"Long":-73.96147156,"BIN_Number":3063276,"Address":"164 SOUTH 3RD ST","Borough":3,"Type":"A1","Borough_Na":"BROOKLYN"}},
{"type":"Feature","geometry":{"type":"Point","coordinates":[-73.99199676977364,40.726940159824565]},"properties":{"OBJECTID_1":26151,"OBJECTID":26151,"Applicatio":"2018-04-23T00:00:00.000Z","Job_Number":103170113,"Job_Type":"A1","Enlargemen":"","Lat":40.72694016,"Long":-73.99199677,"BIN_Number":1008518,"Address":"356 BOWERY","Borough":1,"Type":"A1","Borough_Na":"MANHATTAN"}},
{"type":"Feature","geometry":{"type":"Point","coordinates":[-73.99520110997206,40.72288895011353]},"properties":{"OBJECTID_1":26163,"OBJECTID":26163,"Applicatio":"2018-04-23T00:00:00.000Z","Job_Number":121333690,"Job_Type":"A1","Enlargemen":"","Lat":40.72288895,"Long":-73.99520111,"BIN_Number":1007495,"Address":"32 PRINCE STREET","Borough":1,"Type":"A1","Borough_Na":"MANHATTAN"}},
{"type":"Feature","geometry":{"type":"Point","coordinates":[-73.99445343035465,40.72649002020195]},"properties":{"OBJECTID_1":26174,"OBJECTID":26174,"Applicatio":"2018-04-23T00:00:00.000Z","Job_Number":122629003,"Job_Type":"A1","Enlargemen":"","Lat":40.72649002,"Long":-73.99445343,"BIN_Number":1008425,"Address":"11 BOND STREET","Borough":1,"Type":"A1","Borough_Na":"MANHATTAN"}},
{"type":"Feature","geometry":{"type":"Point","coordinates":[-73.94080352956995,40.714450840285835]},"properties":{"OBJECTID_1":26701,"OBJECTID":26701,"Applicatio":"2018-04-24T00:00:00.000Z","Job_Number":320597412,"Job_Type":"A1","Enlargemen":"","Lat":40.71445084,"Long":-73.94080353,"BIN_Number":3330330,"Address":"850 METROPOLITAN AVE","Borough":3,"Type":"A1","Borough_Na":"BROOKLYN"}},
{"type":"Feature","geometry":{"type":"Point","coordinates":[-73.98548888984956,40.73228835979806]},"properties":{"OBJECTID_1":26865,"OBJECTID":26865,"Applicatio":"2018-04-25T00:00:00.000Z","Job_Number":102440903,"Job_Type":"A1","Enlargemen":"","Lat":40.73228836,"Long":-73.98548889,"BIN_Number":1006906,"Address":"242 EAST 14 STREET","Borough":1,"Type":"A1","Borough_Na":"MANHATTAN"}},
{"type":"Feature","geometry":{"type":"Point","coordinates":[-73.99801636014212,40.72220993007091]},"properties":{"OBJECTID_1":26898,"OBJECTID":26898,"Applicatio":"2018-04-25T00:00:00.000Z","Job_Number":122784923,"Job_Type":"A1","Enlargemen":"","Lat":40.72220993,"Long":-73.99801636,"BIN_Number":1082467,"Address":"61 CROSBY STREET","Borough":1,"Type":"A1","Borough_Na":"MANHATTAN"}},
{"type":"Feature","geometry":{"type":"Point","coordinates":[-73.99199676977364,40.726940159824565]},"properties":{"OBJECTID_1":27212,"OBJECTID":27212,"Applicatio":"2018-04-26T00:00:00.000Z","Job_Number":103170113,"Job_Type":"A1","Enlargemen":"","Lat":40.72694016,"Long":-73.99199677,"BIN_Number":1008518,"Address":"356 BOWERY","Borough":1,"Type":"A1","Borough_Na":"MANHATTAN"}},
{"type":"Feature","geometry":{"type":"Point","coordinates":[-74.00670624056617,40.73920059043504]},"properties":{"OBJECTID_1":27585,"OBJECTID":27585,"Applicatio":"2018-04-27T00:00:00.000Z","Job_Number":121193421,"Job_Type":"A1","Enlargemen":"","Lat":40.73920059,"Long":-74.00670624,"BIN_Number":1012157,"Address":"46 GANSEVOORT STREET","Borough":1,"Type":"A1","Borough_Na":"MANHATTAN"}},
{"type":"Feature","geometry":{"type":"Point","coordinates":[-73.9875869795525,40.72751999013783]},"properties":{"OBJECTID_1":27599,"OBJECTID":27599,"Applicatio":"2018-04-27T00:00:00.000Z","Job_Number":122627032,"Job_Type":"A1","Enlargemen":"","Lat":40.72751999,"Long":-73.98758698,"BIN_Number":1006267,"Address":"52 EAST 7TH. STREET","Borough":1,"Type":"A1","Borough_Na":"MANHATTAN"}},
{"type":"Feature","geometry":{"type":"Point","coordinates":[-73.95284270956529,40.715068819640045]},"properties":{"OBJECTID_1":27839,"OBJECTID":27839,"Applicatio":"2018-04-27T00:00:00.000Z","Job_Number":321607640,"Job_Type":"A1","Enlargemen":"No","Lat":40.71506882,"Long":-73.95284271,"BIN_Number":3062016,"Address":"295 NORTH 7 STREET","Borough":3,"Type":"A1","Borough_Na":"BROOKLYN"}},
{"type":"Feature","geometry":{"type":"Point","coordinates":[-73.99810790945982,40.72214889958337]},"properties":{"OBJECTID_1":27935,"OBJECTID":27935,"Applicatio":"2018-04-30T00:00:00.000Z","Job_Number":103053552,"Job_Type":"A1","Enlargemen":"No","Lat":40.7221489,"Long":-73.99810791,"BIN_Number":1007213,"Address":"59 CROSBY STREET","Borough":1,"Type":"A1","Borough_Na":"MANHATTAN"}},
{"type":"Feature","geometry":{"type":"Point","coordinates":[-73.99564361945784,40.72285079961708]},"properties":{"OBJECTID_1":27963,"OBJECTID":27963,"Applicatio":"2018-04-30T00:00:00.000Z","Job_Number":122965023,"Job_Type":"A1","Enlargemen":"No","Lat":40.7228508,"Long":-73.99564362,"BIN_Number":1007492,"Address":"242 MULBERRY STREET","Borough":1,"Type":"A1","Borough_Na":"MANHATTAN"}},
{"type":"Feature","geometry":{"type":"Point","coordinates":[-73.99514008047976,40.721210479841986]},"properties":{"OBJECTID_1":28044,"OBJECTID":28044,"Applicatio":"2018-04-30T00:00:00.000Z","Job_Number":123433258,"Job_Type":"A1","Enlargemen":"No","Lat":40.72121048,"Long":-73.99514008,"BIN_Number":1007164,"Address":"20 SPRING STREET","Borough":1,"Type":"A1","Borough_Na":"MANHATTAN"}},
{"type":"Feature","geometry":{"type":"Point","coordinates":[-73.94928741010436,40.709880830113455]},"properties":{"OBJECTID_1":28166,"OBJECTID":28166,"Applicatio":"2018-04-30T00:00:00.000Z","Job_Number":321747151,"Job_Type":"A1","Enlargemen":"No","Lat":40.70988083,"Long":-73.94928741,"BIN_Number":3069659,"Address":"35 TEN EYCK STREET","Borough":3,"Type":"A1","Borough_Na":"BROOKLYN"}},
{"type":"Feature","geometry":{"type":"Point","coordinates":[-74.00650787053004,40.74089050001021]},"properties":{"OBJECTID_1":28228,"OBJECTID":28228,"Applicatio":"2018-05-01T00:00:00.000Z","Job_Number":121190718,"Job_Type":"A1","Enlargemen":"","Lat":40.7408905,"Long":-74.00650787,"BIN_Number":1086105,"Address":"412 WEST 14TH STREET","Borough":1,"Type":"A1","Borough_Na":"MANHATTAN"}},
{"type":"Feature","geometry":{"type":"Point","coordinates":[-73.98435974054726,40.72821045022778]},"properties":{"OBJECTID_1":28231,"OBJECTID":28231,"Applicatio":"2018-05-01T00:00:00.000Z","Job_Number":121324236,"Job_Type":"A1","Enlargemen":"","Lat":40.72821045,"Long":-73.98435974,"BIN_Number":1005894,"Address":"150 1 AVENUE","Borough":1,"Type":"A1","Borough_Na":"MANHATTAN"}},
{"type":"Feature","geometry":{"type":"Point","coordinates":[-73.96296691985455,40.71678924989655]},"properties":{"OBJECTID_1":28456,"OBJECTID":28456,"Applicatio":"2018-05-01T00:00:00.000Z","Job_Number":321693100,"Job_Type":"A1","Enlargemen":"No","Lat":40.71678925,"Long":-73.96296692,"BIN_Number":3422359,"Address":"105 METROPOLITAN AVENUE","Borough":3,"Type":"A1","Borough_Na":"BROOKLYN"}},
{"type":"Feature","geometry":{"type":"Point","coordinates":[-74.00605773947734,40.74254989967636]},"properties":{"OBJECTID_1":28903,"OBJECTID":28903,"Applicatio":"2018-05-03T00:00:00.000Z","Job_Number":104025706,"Job_Type":"A1","Enlargemen":"","Lat":40.7425499,"Long":-74.00605774,"BIN_Number":1012541,"Address":"75 9 AVENUE","Borough":1,"Type":"A1","Borough_Na":"MANHATTAN"}},
{"type":"Feature","geometry":{"type":"Point","coordinates":[-73.9915237395631,40.73320007018917]},"properties":{"OBJECTID_1":28938,"OBJECTID":28938,"Applicatio":"2018-05-03T00:00:00.000Z","Job_Number":123119446,"Job_Type":"A1","Enlargemen":"","Lat":40.73320007,"Long":-73.99152374,"BIN_Number":1009134,"Address":"817 BROADWAY","Borough":1,"Type":"A1","Borough_Na":"MANHATTAN"}},
{"type":"Feature","geometry":{"type":"Point","coordinates":[-73.95752715982567,40.71635056015596]},"properties":{"OBJECTID_1":29153,"OBJECTID":29153,"Applicatio":"2018-05-03T00:00:00.000Z","Job_Number":321752359,"Job_Type":"A1","Enlargemen":"No","Lat":40.71635056,"Long":-73.95752716,"BIN_Number":3062221,"Address":"584 DRIGGS AVENUE","Borough":3,"Type":"A1","Borough_Na":"BROOKLYN"}},
{"type":"Feature","geometry":{"type":"Point","coordinates":[-73.98079681031753,40.729320530110506]},"properties":{"OBJECTID_1":29595,"OBJECTID":29595,"Applicatio":"2018-05-05T00:00:00.000Z","Job_Number":121188231,"Job_Type":"A1","Enlargemen":"No","Lat":40.72932053,"Long":-73.98079681,"BIN_Number":1005200,"Address":"202 AVENUE A","Borough":1,"Type":"A1","Borough_Na":"MANHATTAN"}},
{"type":"Feature","geometry":{"type":"Point","coordinates":[-73.94996642959413,40.711311340417765]},"properties":{"OBJECTID_1":29600,"OBJECTID":29600,"Applicatio":"2018-05-05T00:00:00.000Z","Job_Number":320911199,"Job_Type":"A1","Enlargemen":"No","Lat":40.71131134,"Long":-73.94996643,"BIN_Number":3069330,"Address":"535 GRAND STREET","Borough":3,"Type":"A1","Borough_Na":"BROOKLYN"}},
{"type":"Feature","geometry":{"type":"Point","coordinates":[-73.99778747958692,40.72198867972938]},"properties":{"OBJECTID_1":29618,"OBJECTID":29618,"Applicatio":"2018-05-07T00:00:00.000Z","Job_Number":121090700,"Job_Type":"A1","Enlargemen":"","Lat":40.72198868,"Long":-73.99778748,"BIN_Number":1007219,"Address":"218 LAFAYETTE STREET","Borough":1,"Type":"A1","Borough_Na":"MANHATTAN"}},
{"type":"Feature","geometry":{"type":"Point","coordinates":[-73.99389648021425,40.71961975044143]},"properties":{"OBJECTID_1":29653,"OBJECTID":29653,"Applicatio":"2018-05-07T00:00:00.000Z","Job_Number":123076027,"Job_Type":"A1","Enlargemen":"No","Lat":40.71961975,"Long":-73.99389648,"BIN_Number":1005657,"Address":"161 BOWERY","Borough":1,"Type":"A1","Borough_Na":"MANHATTAN"}},
{"type":"Feature","geometry":{"type":"Point","coordinates":[-73.95128632010275,40.71422958018488]},"properties":{"OBJECTID_1":29861,"OBJECTID":29861,"Applicatio":"2018-05-07T00:00:00.000Z","Job_Number":321480651,"Job_Type":"A1","Enlargemen":"","Lat":40.71422958,"Long":-73.95128632,"BIN_Number":3068666,"Address":"525 METROPOLITAN AVENUE","Borough":3,"Type":"A1","Borough_Na":"BROOKLYN"}},
{"type":"Feature","geometry":{"type":"Point","coordinates":[-73.98876953026597,40.7216796900435]},"properties":{"OBJECTID_1":29985,"OBJECTID":29985,"Applicatio":"2018-05-08T00:00:00.000Z","Job_Number":123132895,"Job_Type":"A1","Enlargemen":"No","Lat":40.72167969,"Long":-73.98876953,"BIN_Number":1079079,"Address":"82 STANTON STREET","Borough":1,"Type":"A1","Borough_Na":"MANHATTAN"}},
{"type":"Feature","geometry":{"type":"Point","coordinates":[-73.95609282963207,40.70877075016871]},"properties":{"OBJECTID_1":30524,"OBJECTID":30524,"Applicatio":"2018-05-09T00:00:00.000Z","Job_Number":321393005,"Job_Type":"A1","Enlargemen":"No","Lat":40.70877075,"Long":-73.95609283,"BIN_Number":3063494,"Address":"315 SOUTH 5TH STREET","Borough":3,"Type":"A1","Borough_Na":"BROOKLYN"}},
{"type":"Feature","geometry":{"type":"Point","coordinates":[-73.99826050022965,40.72311020027852]},"properties":{"OBJECTID_1":30632,"OBJECTID":30632,"Applicatio":"2018-05-10T00:00:00.000Z","Job_Number":120942757,"Job_Type":"A1","Enlargemen":"","Lat":40.7231102,"Long":-73.9982605,"BIN_Number":1007561,"Address":"536 BROADWAY","Borough":1,"Type":"A1","Borough_Na":"MANHATTAN"}},
{"type":"Feature","geometry":{"type":"Point","coordinates":[-73.98651886018506,40.73270035041836]},"properties":{"OBJECTID_1":30650,"OBJECTID":30650,"Applicatio":"2018-05-10T00:00:00.000Z","Job_Number":122681106,"Job_Type":"A1","Enlargemen":"","Lat":40.73270035,"Long":-73.98651886,"BIN_Number":1006898,"Address":"218 EAST 14 STREET","Borough":1,"Type":"A1","Borough_Na":"MANHATTAN"}},
{"type":"Feature","geometry":{"type":"Point","coordinates":[-73.99389648021425,40.71961975044143]},"properties":{"OBJECTID_1":31000,"OBJECTID":31000,"Applicatio":"2018-05-11T00:00:00.000Z","Job_Number":102664699,"Job_Type":"A1","Enlargemen":"","Lat":40.71961975,"Long":-73.99389648,"BIN_Number":1005657,"Address":"161 BOWERY","Borough":1,"Type":"A1","Borough_Na":"MANHATTAN"}},
{"type":"Feature","geometry":{"type":"Point","coordinates":[-73.99389648021425,40.71961975044143]},"properties":{"OBJECTID_1":31005,"OBJECTID":31005,"Applicatio":"2018-05-11T00:00:00.000Z","Job_Number":120707887,"Job_Type":"A1","Enlargemen":"","Lat":40.71961975,"Long":-73.99389648,"BIN_Number":1005657,"Address":"161 BOWERY","Borough":1,"Type":"A1","Borough_Na":"MANHATTAN"}},
{"type":"Feature","geometry":{"type":"Point","coordinates":[-73.99167633027045,40.72570038031411]},"properties":{"OBJECTID_1":31088,"OBJECTID":31088,"Applicatio":"2018-05-11T00:00:00.000Z","Job_Number":123393791,"Job_Type":"A1","Enlargemen":"No","Lat":40.72570038,"Long":-73.99167633,"BIN_Number":1006543,"Address":"327 BOWERY","Borough":1,"Type":"A1","Borough_Na":"MANHATTAN"}},
{"type":"Feature","geometry":{"type":"Point","coordinates":[-73.9605331404705,40.71836090032854]},"properties":{"OBJECTID_1":31236,"OBJECTID":31236,"Applicatio":"2018-05-11T00:00:00.000Z","Job_Number":321489199,"Job_Type":"A1","Enlargemen":"No","Lat":40.7183609,"Long":-73.96053314,"BIN_Number":3332271,"Address":"102 NORTH 6TH STREET","Borough":3,"Type":"A1","Borough_Na":"BROOKLYN"}},
{"type":"Feature","geometry":{"type":"Point","coordinates":[-73.98079681031753,40.729320530110506]},"properties":{"OBJECTID_1":31357,"OBJECTID":31357,"Applicatio":"2018-05-14T00:00:00.000Z","Job_Number":121188231,"Job_Type":"A1","Enlargemen":"No","Lat":40.72932053,"Long":-73.98079681,"BIN_Number":1005200,"Address":"202 AVENUE A","Borough":1,"Type":"A1","Borough_Na":"MANHATTAN"}},
{"type":"Feature","geometry":{"type":"Point","coordinates":[-74.00186919960608,40.736961359684805]},"properties":{"OBJECTID_1":31368,"OBJECTID":31368,"Applicatio":"2018-05-14T00:00:00.000Z","Job_Number":122115969,"Job_Type":"A1","Enlargemen":"","Lat":40.73696136,"Long":-74.0018692,"BIN_Number":1010985,"Address":"10 BANK STREET","Borough":1,"Type":"A1","Borough_Na":"MANHATTAN"}},
{"type":"Feature","geometry":{"type":"Point","coordinates":[-73.94566345005542,40.713378910411755]},"properties":{"OBJECTID_1":31929,"OBJECTID":31929,"Applicatio":"2018-05-15T00:00:00.000Z","Job_Number":321193819,"Job_Type":"A1","Enlargemen":"","Lat":40.71337891,"Long":-73.94566345,"BIN_Number":3069042,"Address":"286 MANHATTAN AVE","Borough":3,"Type":"A1","Borough_Na":"BROOKLYN"}},
{"type":"Feature","geometry":{"type":"Point","coordinates":[-73.98844147048811,40.72700118967985]},"properties":{"OBJECTID_1":32079,"OBJECTID":32079,"Applicatio":"2018-05-16T00:00:00.000Z","Job_Number":122987562,"Job_Type":"A1","Enlargemen":"","Lat":40.72700119,"Long":-73.98844147,"BIN_Number":1006224,"Address":"96 SECOND AVENUE","Borough":1,"Type":"A1","Borough_Na":"MANHATTAN"}},
{"type":"Feature","geometry":{"type":"Point","coordinates":[-73.99826050022965,40.72311020027852]},"properties":{"OBJECTID_1":32385,"OBJECTID":32385,"Applicatio":"2018-05-17T00:00:00.000Z","Job_Number":120942757,"Job_Type":"A1","Enlargemen":"","Lat":40.7231102,"Long":-73.9982605,"BIN_Number":1007561,"Address":"536 BROADWAY","Borough":1,"Type":"A1","Borough_Na":"MANHATTAN"}},
{"type":"Feature","geometry":{"type":"Point","coordinates":[-73.99828339012824,40.72142029018794]},"properties":{"OBJECTID_1":32387,"OBJECTID":32387,"Applicatio":"2018-05-17T00:00:00.000Z","Job_Number":121056445,"Job_Type":"A1","Enlargemen":"","Lat":40.72142029,"Long":-73.99828339,"BIN_Number":1007223,"Address":"200 LAFAYETTE STREET","Borough":1,"Type":"A1","Borough_Na":"MANHATTAN"}},
{"type":"Feature","geometry":{"type":"Point","coordinates":[-74.00319671948203,40.741359710064394]},"properties":{"OBJECTID_1":32409,"OBJECTID":32409,"Applicatio":"2018-05-17T00:00:00.000Z","Job_Number":122485596,"Job_Type":"A1","Enlargemen":"","Lat":40.74135971,"Long":-74.00319672,"BIN_Number":1013043,"Address":"111 EIGHTH AVENUE","Borough":1,"Type":"A1","Borough_Na":"MANHATTAN"}},
{"type":"Feature","geometry":{"type":"Point","coordinates":[-74.00412749965912,40.73907089008432]},"properties":{"OBJECTID_1":32410,"OBJECTID":32410,"Applicatio":"2018-05-17T00:00:00.000Z","Job_Number":122496450,"Job_Type":"A1","Enlargemen":"","Lat":40.73907089,"Long":-74.0041275,"BIN_Number":1011689,"Address":"2 GANSEVOORT STREET","Borough":1,"Type":"A1","Borough_Na":"MANHATTAN"}},
{"type":"Feature","geometry":{"type":"Point","coordinates":[-74.00708007991236,40.73831939995086]},"properties":{"OBJECTID_1":32466,"OBJECTID":32466,"Applicatio":"2018-05-17T00:00:00.000Z","Job_Number":123394086,"Job_Type":"A1","Enlargemen":"No","Lat":40.7383194,"Long":-74.00708008,"BIN_Number":1012147,"Address":"75 JANE STREET","Borough":1,"Type":"A1","Borough_Na":"MANHATTAN"}},
{"type":"Feature","geometry":{"type":"Point","coordinates":[-73.95918274035749,40.71717071968226]},"properties":{"OBJECTID_1":32607,"OBJECTID":32607,"Applicatio":"2018-05-17T00:00:00.000Z","Job_Number":321186658,"Job_Type":"A1","Enlargemen":"","Lat":40.71717072,"Long":-73.95918274,"BIN_Number":3062197,"Address":"131 NORTH 5 STREET","Borough":3,"Type":"A1","Borough_Na":"BROOKLYN"}},
{"type":"Feature","geometry":{"type":"Point","coordinates":[-73.94994354039756,40.71274947957039]},"properties":{"OBJECTID_1":32614,"OBJECTID":32614,"Applicatio":"2018-05-17T00:00:00.000Z","Job_Number":321398055,"Job_Type":"A1","Enlargemen":"","Lat":40.71274948,"Long":-73.94994354,"BIN_Number":3068958,"Address":"115 AINSLIE STREET","Borough":3,"Type":"A1","Borough_Na":"BROOKLYN"}},
{"type":"Feature","geometry":{"type":"Point","coordinates":[-73.98842621048047,40.7225494401323]},"properties":{"OBJECTID_1":32722,"OBJECTID":32722,"Applicatio":"2018-05-18T00:00:00.000Z","Job_Number":121544374,"Job_Type":"A1","Enlargemen":"","Lat":40.72254944,"Long":-73.98842621,"BIN_Number":1077625,"Address":"177 EAST HOUSTON STREET","Borough":1,"Type":"A1","Borough_Na":"MANHATTAN"}},
{"type":"Feature","geometry":{"type":"Point","coordinates":[-73.99801636014212,40.72220993007091]},"properties":{"OBJECTID_1":32728,"OBJECTID":32728,"Applicatio":"2018-05-18T00:00:00.000Z","Job_Number":122784923,"Job_Type":"A1","Enlargemen":"","Lat":40.72220993,"Long":-73.99801636,"BIN_Number":1082467,"Address":"61 CROSBY STREET","Borough":1,"Type":"A1","Borough_Na":"MANHATTAN"}},
{"type":"Feature","geometry":{"type":"Point","coordinates":[-73.99749756014319,40.72386932006404]},"properties":{"OBJECTID_1":33094,"OBJECTID":33094,"Applicatio":"2018-05-21T00:00:00.000Z","Job_Number":122227385,"Job_Type":"A1","Enlargemen":"","Lat":40.72386932,"Long":-73.99749756,"BIN_Number":1007567,"Address":"560 BROADWAY","Borough":1,"Type":"A1","Borough_Na":"MANHATTAN"}},
{"type":"Feature","geometry":{"type":"Point","coordinates":[-73.99564361945784,40.72285079961708]},"properties":{"OBJECTID_1":33113,"OBJECTID":33113,"Applicatio":"2018-05-21T00:00:00.000Z","Job_Number":122965023,"Job_Type":"A1","Enlargemen":"","Lat":40.7228508,"Long":-73.99564362,"BIN_Number":1007492,"Address":"242 MULBERRY STREET","Borough":1,"Type":"A1","Borough_Na":"MANHATTAN"}},
{"type":"Feature","geometry":{"type":"Point","coordinates":[-74.00369263000034,40.737911219664866]},"properties":{"OBJECTID_1":33385,"OBJECTID":33385,"Applicatio":"2018-05-22T00:00:00.000Z","Job_Number":122770000,"Job_Type":"A1","Enlargemen":"","Lat":40.73791122,"Long":-74.00369263,"BIN_Number":1011034,"Address":"327 WEST 4TH ST","Borough":1,"Type":"A1","Borough_Na":"MANHATTAN"}},
{"type":"Feature","geometry":{"type":"Point","coordinates":[-73.997161870343,40.72317123027059]},"properties":{"OBJECTID_1":33741,"OBJECTID":33741,"Applicatio":"2018-05-23T00:00:00.000Z","Job_Number":120032696,"Job_Type":"A1","Enlargemen":"","Lat":40.72317123,"Long":-73.99716187,"BIN_Number":1007549,"Address":"250 LAFAYETTE STREET","Borough":1,"Type":"A1","Borough_Na":"MANHATTAN"}},
{"type":"Feature","geometry":{"type":"Point","coordinates":[-73.99603270987126,40.72325897044501]},"properties":{"OBJECTID_1":34077,"OBJECTID":34077,"Applicatio":"2018-05-24T00:00:00.000Z","Job_Number":122222905,"Job_Type":"A1","Enlargemen":"","Lat":40.72325897,"Long":-73.99603271,"BIN_Number":1007525,"Address":"50 PRINCE STREET","Borough":1,"Type":"A1","Borough_Na":"MANHATTAN"}},
{"type":"Feature","geometry":{"type":"Point","coordinates":[-74.00660705995142,40.74211884001969]},"properties":{"OBJECTID_1":34091,"OBJECTID":34091,"Applicatio":"2018-05-24T00:00:00.000Z","Job_Number":122953410,"Job_Type":"A1","Enlargemen":"","Lat":40.74211884,"Long":-74.00660706,"BIN_Number":1012540,"Address":"436 WEST 15 ST","Borough":1,"Type":"A1","Borough_Na":"MANHATTAN"}},
{"type":"Feature","geometry":{"type":"Point","coordinates":[-73.9580535902291,40.716831209595505]},"properties":{"OBJECTID_1":34332,"OBJECTID":34332,"Applicatio":"2018-05-24T00:00:00.000Z","Job_Number":321698249,"Job_Type":"A1","Enlargemen":"No","Lat":40.71683121,"Long":-73.95805359,"BIN_Number":3062212,"Address":"174 NORTH 6TH STREET","Borough":3,"Type":"A1","Borough_Na":"BROOKLYN"}},
{"type":"Feature","geometry":{"type":"Point","coordinates":[-74.00650787053004,40.74089050001021]},"properties":{"OBJECTID_1":34415,"OBJECTID":34415,"Applicatio":"2018-05-25T00:00:00.000Z","Job_Number":121190718,"Job_Type":"A1","Enlargemen":"","Lat":40.7408905,"Long":-74.00650787,"BIN_Number":1086105,"Address":"412 WEST 14TH STREET","Borough":1,"Type":"A1","Borough_Na":"MANHATTAN"}},
{"type":"Feature","geometry":{"type":"Point","coordinates":[-73.99501038018899,40.7334594699911]},"properties":{"OBJECTID_1":34428,"OBJECTID":34428,"Applicatio":"2018-05-25T00:00:00.000Z","Job_Number":122255503,"Job_Type":"A1","Enlargemen":"","Lat":40.73345947,"Long":-73.99501038,"BIN_Number":1009250,"Address":"35 5TH AVENUE","Borough":1,"Type":"A1","Borough_Na":"MANHATTAN"}},
{"type":"Feature","geometry":{"type":"Point","coordinates":[-73.99810790945982,40.72214889958337]},"properties":{"OBJECTID_1":34726,"OBJECTID":34726,"Applicatio":"2018-05-29T00:00:00.000Z","Job_Number":103053552,"Job_Type":"A1","Enlargemen":"","Lat":40.7221489,"Long":-73.99810791,"BIN_Number":1007213,"Address":"59 CROSBY STREET","Borough":1,"Type":"A1","Borough_Na":"MANHATTAN"}},
{"type":"Feature","geometry":{"type":"Point","coordinates":[-73.95916747942267,40.71152878007189]},"properties":{"OBJECTID_1":34917,"OBJECTID":34917,"Applicatio":"2018-05-29T00:00:00.000Z","Job_Number":321180672,"Job_Type":"A1","Enlargemen":"","Lat":40.71152878,"Long":-73.95916748,"BIN_Number":3421342,"Address":"207 SOUTH 3 ST","Borough":3,"Type":"A1","Borough_Na":"BROOKLYN"}},
{"type":"Feature","geometry":{"type":"Point","coordinates":[-73.99669646985187,40.72480011029409]},"properties":{"OBJECTID_1":35036,"OBJECTID":35036,"Applicatio":"2018-05-30T00:00:00.000Z","Job_Number":103740702,"Job_Type":"A1","Enlargemen":"","Lat":40.72480011,"Long":-73.99669647,"BIN_Number":1007944,"Address":"594 BROADWAY","Borough":1,"Type":"A1","Borough_Na":"MANHATTAN"}},
{"type":"Feature","geometry":{"type":"Point","coordinates":[-73.99481201001522,40.72544860997079]},"properties":{"OBJECTID_1":35037,"OBJECTID":35037,"Applicatio":"2018-05-30T00:00:00.000Z","Job_Number":104292114,"Job_Type":"A1","Enlargemen":"No","Lat":40.72544861,"Long":-73.99481201,"BIN_Number":1008220,"Address":"325 LAFAYETTE STREET","Borough":1,"Type":"A1","Borough_Na":"MANHATTAN"}},
{"type":"Feature","geometry":{"type":"Point","coordinates":[-73.96412658945843,40.715869899869006]},"properties":{"OBJECTID_1":35289,"OBJECTID":35289,"Applicatio":"2018-05-30T00:00:00.000Z","Job_Number":321566328,"Job_Type":"A1","Enlargemen":"No","Lat":40.7158699,"Long":-73.96412659,"BIN_Number":3424060,"Address":"79 GRAND STREET","Borough":3,"Type":"A1","Borough_Na":"BROOKLYN"}},
{"type":"Feature","geometry":{"type":"Point","coordinates":[-73.93708037981287,40.71255875032491]},"properties":{"OBJECTID_1":35688,"OBJECTID":35688,"Applicatio":"2018-05-31T00:00:00.000Z","Job_Number":321545155,"Job_Type":"A1","Enlargemen":"","Lat":40.71255875,"Long":-73.93708038,"BIN_Number":3070758,"Address":"932 GRAND STREET","Borough":3,"Type":"A1","Borough_Na":"BROOKLYN"}},
{"type":"Feature","geometry":{"type":"Point","coordinates":[-73.98499298058023,40.726230619903774]},"properties":{"OBJECTID_1":35817,"OBJECTID":35817,"Applicatio":"2018-06-01T00:00:00.000Z","Job_Number":122459570,"Job_Type":"A1","Enlargemen":"","Lat":40.72623062,"Long":-73.98499298,"BIN_Number":1005806,"Address":"421 EAST 6TH STREET","Borough":1,"Type":"A1","Borough_Na":"MANHATTAN"}},
{"type":"Feature","geometry":{"type":"Point","coordinates":[-73.98869323987601,40.72959900041547]},"properties":{"OBJECTID_1":36134,"OBJECTID":36134,"Applicatio":"2018-06-04T00:00:00.000Z","Job_Number":100759467,"Job_Type":"A1","Enlargemen":"","Lat":40.729599,"Long":-73.98869324,"BIN_Number":1006741,"Address":"214 EAST 9 STREET","Borough":1,"Type":"A1","Borough_Na":"MANHATTAN"}},
{"type":"Feature","geometry":{"type":"Point","coordinates":[-73.9898681604593,40.719348910048005]},"properties":{"OBJECTID_1":36139,"OBJECTID":36139,"Applicatio":"2018-06-04T00:00:00.000Z","Job_Number":104933299,"Job_Type":"A1","Enlargemen":"","Lat":40.71934891,"Long":-73.98986816,"BIN_Number":1005508,"Address":"80 DELANCY STREET","Borough":1,"Type":"A1","Borough_Na":"MANHATTAN"}},
{"type":"Feature","geometry":{"type":"Point","coordinates":[-73.94521332007751,40.71421050955807]},"properties":{"OBJECTID_1":36335,"OBJECTID":36335,"Applicatio":"2018-06-04T00:00:00.000Z","Job_Number":321189851,"Job_Type":"A1","Enlargemen":"","Lat":40.71421051,"Long":-73.94521332,"BIN_Number":3338159,"Address":"710 METROPOLITAN AVENUE","Borough":3,"Type":"A1","Borough_Na":"BROOKLYN"}},
{"type":"Feature","geometry":{"type":"Point","coordinates":[-73.97698211980624,40.734870910408134]},"properties":{"OBJECTID_1":36456,"OBJECTID":36456,"Applicatio":"2018-06-05T00:00:00.000Z","Job_Number":104359542,"Job_Type":"A1","Enlargemen":"","Lat":40.73487091,"Long":-73.97698212,"BIN_Number":1083679,"Address":"350 FIRST AVENUE","Borough":1,"Type":"A1","Borough_Na":"MANHATTAN"}},
{"type":"Feature","geometry":{"type":"Point","coordinates":[-73.9846115103185,40.731880189582974]},"properties":{"OBJECTID_1":36859,"OBJECTID":36859,"Applicatio":"2018-06-06T00:00:00.000Z","Job_Number":123395655,"Job_Type":"A1","Enlargemen":"No","Lat":40.73188019,"Long":-73.98461151,"BIN_Number":1006511,"Address":"310 EAST 14TH STREET","Borough":1,"Type":"A1","Borough_Na":"MANHATTAN"}},
{"type":"Feature","geometry":{"type":"Point","coordinates":[-73.95909882049061,40.71614838026692]},